X,Y,OBJECTID,SERVICECODE,SERVICECODEDESCRIPTION,SERVICETYPECODEDESCRIPTION,ORGANIZATIONACRONYM,SERVICECALLCOUNT,ADDDATE,RESOLUTIONDATE,SERVICEDUEDATE,SERVICEORDERDATE,INSPECTIONFLAG,INSPECTIONDATE,INSPECTORNAME,SERVICEORDERSTATUS,STATUS_CODE,SERVICEREQUESTID,PRIORITY,STREETADDRESS,XCOORD,YCOORD,LATITUDE,LONGITUDE,CITY,STATE,ZIPCODE,MARADDRESSREPOSITORYID,WARD,DETAILS
-77.01183098,38.95747498,1850,SPSTDAMA,Traffic Safety Investigation,Department of Transportation,DDOT,1,2020/01/02 09:33:13+00,1970/01/01 00:00:00+00,2020/07/09 10:33:13+00,2020/01/02 09:33:13+00,,1970/01/01 00:00:00+00,,In-Progress,,20-00000943,Standard,100 LONGFELLOW STREET NW,398974.76,143284.72,38.95746752,-77.01182869,WASHINGTON,DC,20011,245851,4,
-76.94694834,38.90020004,3676,SPSTDAMA,Traffic Safety Investigation,Department of Transportation,DDOT,1,2020/01/03 09:36:22+00,2020/01/06 09:35:16+00,2020/07/10 10:36:22+00,2020/01/03 09:36:22+00,0,2020/01/06 09:35:15+00,,Closed,,20-00003047,Standard,730 KENILWORTH AVENUE NE,404602.09,136927.98,38.90019225,-76.94694607,WASHINGTON,DC,20019,316433,7,
-77.0088322,38.96895843,4053,SPSTDAMA,Traffic Safety Investigation,Department of Transportation,DDOT,1,2020/01/03 13:28:34+00,2020/01/06 09:30:14+00,2020/07/10 14:28:34+00,2020/01/03 13:28:34+00,0,2020/01/06 09:30:12+00,,Closed,,20-00003732,Standard,6527 NORTH CAPITOL STREET NE,399234.8,144559.46,38.96895096,-77.00882991,WASHINGTON,DC,20012,1320,4,
-77.07291344,38.93206821,5418,SPSTDAMA,Traffic Safety Investigation,Department of Transportation,DDOT,1,2020/01/04 11:41:57+00,2020/01/06 11:25:28+00,2020/07/10 12:41:57+00,2020/01/04 11:41:57+00,0,2020/01/06 11:25:26+00,,Closed,,20-00004988,Standard,3206 WISCONSIN AVENUE NW,393678.25,140466.8,38.93206075,-77.07291113,WASHINGTON,DC,20016,221531,3,
-77.05507635,38.90396838,6724,SPSTDAMA,Traffic Safety Investigation,Department of Transportation,DDOT,1,2020/01/05 08:30:46+00,2020/02/10 09:50:20+00,2020/07/10 09:30:45+00,2020/01/05 08:30:46+00,0,2020/02/10 09:50:19+00,,Closed,,20-00005786,Standard,2600 PENNSYLVANIA AVENUE NW,395222.93,137346.4,38.90396059,-77.05507405,WASHINGTON,DC,20037,274801,2,
-77.00057177,38.91976284,6969,SPSTDAMA,Traffic Safety Investigation,Department of Transportation,DDOT,1,2020/01/05 16:05:22+00,2020/01/07 11:00:56+00,2020/07/10 17:05:22+00,2020/01/05 16:05:22+00,0,2020/01/07 11:00:54+00,,Closed,,20-00006350,Standard,4TH STREET NE AND RHODE ISLAND AVENUE NE,399950.6141,139098.2746,38.91975505,-77.00056949,WASHINGTON,DC,20002,901289,5,
-77.02830778,38.89266469,7176,SPSTDAMA,Traffic Safety Investigation,Department of Transportation,DDOT,1,2020/01/06 06:34:27+00,2020/02/10 09:50:17+00,2020/07/13 07:34:27+00,2020/01/06 06:34:27+00,0,2020/02/10 09:50:15+00,,Closed,,20-00006677,Standard,210 12TH STREET NW,397544.42,136090.54,38.8926569,-77.02830549,WASHINGTON,DC,20004,317203,2,
-77.02274968,38.91180091,7178,SPSTDAMA,Traffic Safety Investigation,Department of Transportation,DDOT,1,2020/01/06 06:39:53+00,2020/01/22 15:25:19+00,2020/07/13 07:39:52+00,2020/01/06 06:39:53+00,0,2020/01/22 15:25:17+00,,Closed,,20-00006679,Standard,718 RHODE ISLAND AVENUE NW,398027.13,138214.68,38.91179346,-77.02274739,WASHINGTON,DC,20001,279907,6,
-76.94946178,38.86187919,7494,SPSTDAMA,Traffic Safety Investigation,Department of Transportation,DDOT,1,2020/01/06 06:13:22+00,2020/01/07 11:40:25+00,2020/07/13 07:13:22+00,2020/01/06 06:13:22+00,0,2020/01/07 11:40:23+00,,Closed,,20-00006672,Standard,3820 SOUTHERN AVENUE SE,404386.42,132673.95,38.86187174,-76.94945952,WASHINGTON,DC,20020,145295,7,
-77.03596682,38.9640677,7620,SPSTDAMA,Traffic Safety Investigation,Department of Transportation,DDOT,1,2020/01/06 09:20:29+00,2020/01/08 11:00:11+00,2020/07/13 10:20:29+00,2020/01/06 09:20:29+00,0,2020/01/08 11:00:09+00,,Closed,,20-00006985,Standard,6045 16TH STREET NW,396883.1,144017.12,38.96406023,-77.03596452,WASHINGTON,DC,20011,256159,4,
-76.99379829,38.86151032,7623,SPSTDAMA,Traffic Safety Investigation,Department of Transportation,DDOT,1,2020/01/06 09:21:05+00,2020/01/07 11:45:11+00,2020/07/13 10:21:05+00,2020/01/06 09:21:05+00,0,2020/01/07 11:45:10+00,,Closed,,20-00006988,Standard,HOWARD ROAD SE AND MARTIN LUTHER KING JR AVENUE SE,400538.4483,132631.8077,38.86150254,-76.99379601,WASHINGTON,DC,20020,902586,8,
-77.03594086,38.94804696,7626,SPSTDAMA,Traffic Safety Investigation,Department of Transportation,DDOT,1,2020/01/06 09:22:21+00,2020/01/08 10:55:11+00,2020/07/13 10:22:21+00,2020/01/06 09:22:21+00,0,2020/01/08 10:55:10+00,,Closed,,20-00006991,Standard,4715 16TH STREET NW,396884.65,142238.67,38.94803916,-77.03593856,WASHINGTON,DC,20011,255699,4,
-76.98374084,38.84940898,7763,SPSTDAMA,Traffic Safety Investigation,Department of Transportation,DDOT,1,2020/01/06 11:11:21+00,2020/01/07 11:40:28+00,2020/07/13 12:11:21+00,2020/01/06 11:11:21+00,0,2020/01/07 11:40:26+00,,Closed,,20-00007346,Standard,1423 SHIPPEN LANE SE,401411.58,131288.58,38.84940154,-76.98373857,WASHINGTON,DC,20020,305623,8,
-77.00344858,38.86069742,8853,SPSTDAMA,Traffic Safety Investigation,Department of Transportation,DDOT,1,2020/01/06 16:29:44+00,2020/01/07 11:40:48+00,2020/07/13 17:29:44+00,2020/01/06 16:29:44+00,0,2020/01/07 11:40:47+00,,Closed,,20-00008440,Standard,FIRTH STERLING AVENUE SE AND SOUTH CAPITOL STREET,399700.89,132541.557,38.86068964,-77.0034463,WASHINGTON,DC,20373,908006,8,
-77.05507635,38.90396838,9267,SPSTDAMA,Traffic Safety Investigation,Department of Transportation,DDOT,1,2020/01/07 00:58:47+00,2020/01/16 09:40:13+00,2020/07/09 01:58:47+00,2020/01/07 00:58:47+00,0,2020/01/16 09:40:12+00,,Closed,,20-00008999,Standard,2600 PENNSYLVANIA AVENUE NW,395222.93,137346.4,38.90396059,-77.05507405,WASHINGTON,DC,20037,274801,2,
-76.98797539,38.84450377,9695,SPSTDAMA,Traffic Safety Investigation,Department of Transportation,DDOT,1,2020/01/07 08:59:35+00,2020/03/26 13:30:06+00,2020/07/14 09:59:35+00,2020/01/07 08:59:35+00,0,2020/03/26 13:30:05+00,,Closed,,20-00009346,Standard,1309 ALABAMA AVENUE SE,401044.07,130744.01,38.84449599,-76.98797312,WASHINGTON,DC,20032,68416,8,
-77.01620022,38.90018451,9779,SPSTDAMA,Traffic Safety Investigation,Department of Transportation,DDOT,1,2020/01/07 10:29:50+00,2020/01/09 11:00:12+00,2020/07/14 11:29:50+00,2020/01/07 10:29:50+00,0,2020/01/09 11:00:08+00,,Closed,,20-00009655,Standard,4TH STREET NW AND MASSACHUSETTS AVENUE NW,398594.9324,136925.0432,38.90017672,-77.01619793,WASHINGTON,DC,20001,900946,NULL,
-77.03646004,38.93261511,10021,SPSTDAMA,Traffic Safety Investigation,Department of Transportation,DDOT,1,2020/01/07 10:17:22+00,1970/01/01 00:00:00+00,2020/07/14 11:17:22+00,2020/01/07 10:17:22+00,,1970/01/01 00:00:00+00,,In-Progress,,20-00009603,Standard,16TH STREET NW AND MONROE STREET NW,396838.96,140525.617,38.93260732,-77.03645774,WASHINGTON,DC,20010,901544,1,
-76.98245544,38.88362608,10303,SPSTDAMA,Traffic Safety Investigation,Department of Transportation,DDOT,1,2020/01/07 12:37:47+00,1970/01/01 00:00:00+00,2020/07/14 13:37:47+00,2020/01/07 12:37:47+00,,1970/01/01 00:00:00+00,,In-Progress,,20-00010076,Standard,417 16TH STREET SE,401522.43,135086.95,38.88361863,-76.98245316,WASHINGTON,DC,20003,25924,6,
-76.99833874,38.90623809,10330,SPSTDAMA,Traffic Safety Investigation,Department of Transportation,DDOT,1,2020/01/07 13:32:41+00,2020/01/08 09:40:13+00,2020/07/14 14:32:41+00,2020/01/07 13:32:41+00,0,2020/01/08 09:40:12+00,,Closed,,20-00010224,Standard,6TH STREET NE AND FLORIDA AVENUE NE,400144.29,137596.917,38.90623031,-76.99833645,WASHINGTON,DC,20002,904083,NULL,
-77.02968814,38.96827998,11301,SPSTDAMA,Traffic Safety Investigation,Department of Transportation,DDOT,1,2020/01/08 08:39:00+00,2020/02/10 14:35:19+00,2020/07/15 09:38:59+00,2020/01/08 08:39:00+00,0,2020/02/10 14:35:18+00,,Closed,,20-00011203,Standard,TEWKESBURY PLACE NW AND 13TH STREET NW,397427.4,144484.527,38.96827218,-77.02968584,WASHINGTON,DC,20012,904680,4,
-76.98517995,38.85427904,11453,SPSTDAMA,Traffic Safety Investigation,Department of Transportation,DDOT,1,2020/01/08 11:07:32+00,2020/03/30 07:50:12+00,2020/07/15 12:07:32+00,2020/01/08 11:07:32+00,0,2020/03/30 07:50:11+00,,Closed,,20-00011625,Standard,3000 STANTON ROAD SE,401286.57,131829.17,38.85427126,-76.98517767,WASHINGTON,DC,20020,308463,8,
-76.98284433,38.85451126,11557,SPSTDAMA,Traffic Safety Investigation,Department of Transportation,DDOT,1,2020/01/08 10:59:40+00,1970/01/01 00:00:00+00,2020/07/15 11:59:40+00,2020/01/08 10:59:40+00,,1970/01/01 00:00:00+00,,In-Progress,,20-00011603,Standard,2400 - 2499 BLOCK OF 15TH PLACE SE,401489.2961,131854.9832,38.85450348,-76.98284205,WASHINGTON,DC,20020,804944,8,
-76.98842657,38.85418019,11591,SPSTDAMA,Traffic Safety Investigation,Department of Transportation,DDOT,1,2020/01/08 11:35:00+00,1970/01/01 00:00:00+00,2020/07/15 12:35:00+00,2020/01/08 11:35:00+00,,1970/01/01 00:00:00+00,,In-Progress,,20-00011692,Standard,2400 - 2599 BLOCK OF ELVANS ROAD SE,401004.7668,131818.1552,38.85417241,-76.98842429,WASHINGTON,DC,20020,807576,8,
-77.0322341,38.90897916,12149,SPSTDAMA,Traffic Safety Investigation,Department of Transportation,DDOT,1,2020/01/08 18:17:57+00,2020/02/10 14:35:16+00,2020/07/15 19:17:57+00,2020/01/08 18:17:57+00,0,2020/02/10 14:35:14+00,,Closed,,20-00012661,Standard,1400 14TH STREET NW,397204.44,137901.69,38.90897171,-77.03223181,WASHINGTON,DC,20005,240221,2,
-77.00878398,38.91666217,12628,SPSTDAMA,Traffic Safety Investigation,Department of Transportation,DDOT,1,2020/01/08 22:32:53+00,2020/01/09 10:55:27+00,2020/07/15 23:32:53+00,2020/01/08 22:32:53+00,0,2020/01/09 10:55:25+00,,Closed,,20-00012835,Standard,1 RHODE ISLAND AVENUE NE,399238.42,138754.11,38.91665471,-77.00878169,WASHINGTON,DC,20002,76020,5,
-77.05184238,38.90283661,12777,SPSTDAMA,Traffic Safety Investigation,Department of Transportation,DDOT,1,2020/01/09 09:40:16+00,2020/02/10 14:41:17+00,2020/07/16 10:40:16+00,2020/01/09 09:40:16+00,0,2020/02/10 14:41:15+00,,Closed,,20-00013239,Standard,2400 PENNSYLVANIA AVENUE NW,395503.37,137220.6,38.90282915,-77.05184008,WASHINGTON,DC,20037,275589,2,
-77.03393283,38.90595386,13186,SPSTDAMA,Traffic Safety Investigation,Department of Transportation,DDOT,1,2020/01/09 08:56:30+00,2020/02/19 09:25:04+00,2020/07/16 09:56:30+00,2020/01/09 08:56:30+00,0,2020/02/19 09:25:03+00,,Closed,,20-00013097,Standard,1201 15TH STREET NW,397056.98,137565.91,38.90594607,-77.03393053,WASHINGTON,DC,20005,240244,2,
-77.05184238,38.90283661,13263,SPSTDAMA,Traffic Safety Investigation,Department of Transportation,DDOT,1,2020/01/09 09:38:09+00,2020/01/10 08:55:08+00,2020/07/16 10:38:09+00,2020/01/09 09:38:09+00,0,2020/01/10 08:55:07+00,,Closed,,20-00013234,Standard,2400 PENNSYLVANIA AVENUE NW,395503.37,137220.6,38.90282915,-77.05184008,WASHINGTON,DC,20037,275589,2,
-76.99024648,38.90132562,13294,SPSTDAMA,Traffic Safety Investigation,Department of Transportation,DDOT,1,2020/01/09 10:40:09+00,2020/01/10 09:00:15+00,2020/07/16 11:40:08+00,2020/01/09 10:40:09+00,0,2020/01/10 09:00:14+00,,Closed,,20-00013400,Standard,12TH STREET NE AND I STREET NE,400846.24,137051.637,38.90131784,-76.9902442,WASHINGTON,DC,20002,902619,6,
-77.02903872,38.98303925,13332,SPSTDAMA,Traffic Safety Investigation,Department of Transportation,DDOT,1,2020/01/09 11:10:08+00,2020/02/10 14:41:14+00,2020/07/16 12:10:08+00,2020/01/09 11:10:08+00,0,2020/02/10 14:41:12+00,,Closed,,20-00013488,Standard,1208 JUNIPER STREET NW,397484.2,146122.93,38.98303179,-77.02903643,WASHINGTON,DC,20012,253587,4,
-76.98551475,38.89173582,15080,SPSTDAMA,Traffic Safety Investigation,Department of Transportation,DDOT,1,2020/01/10 10:03:43+00,2020/02/12 09:55:10+00,2020/07/17 11:03:43+00,2020/01/10 10:03:43+00,0,2020/02/12 09:55:09+00,,Closed,,20-00015124,Standard,14TH STREET NE AND NORTH CAROLINA AVENUE NE,401256.85,135987.1473,38.89172803,-76.98551247,WASHINGTON,DC,20002,904211,6,
-77.01189066,38.90372708,15668,SPSTDAMA,Traffic Safety Investigation,Department of Transportation,DDOT,1,2020/01/10 16:03:41+00,2020/01/13 11:15:14+00,2020/07/17 17:03:41+00,2020/01/10 16:03:41+00,0,2020/01/13 11:15:13+00,,Closed,,20-00016019,Standard,9 K TERRACE NW,398968.81,137318.24,38.90371963,-77.01188838,WASHINGTON,DC,20001,300297,6,
-77.00870278,38.92495632,17589,SPSTDAMA,Traffic Safety Investigation,Department of Transportation,DDOT,1,2020/01/13 09:19:00+00,1970/01/01 00:00:00+00,2020/07/20 10:18:59+00,2020/01/13 09:19:00+00,,1970/01/01 00:00:00+00,,In-Progress,,20-00018024,Standard,2713 NORTH CAPITOL STREET NE,399245.55,139674.83,38.92494886,-77.00870049,WASHINGTON,DC,20002,45148,5,
-77.04642067,38.90052509,17808,SPSTDAMA,Traffic Safety Investigation,Department of Transportation,DDOT,1,2020/01/13 09:02:52+00,2020/02/13 09:35:33+00,2020/07/20 10:02:52+00,2020/01/13 09:02:52+00,0,2020/02/13 09:35:32+00,,Closed,,20-00017972,Standard,2040 I STREET NW,395973.52,136963.75,38.90051764,-77.04641838,WASHINGTON,DC,20006,218609,2,
-76.97632045,38.84594838,17868,SPSTDAMA,Traffic Safety Investigation,Department of Transportation,DDOT,1,2020/01/13 10:30:30+00,2020/01/14 09:25:21+00,2020/07/20 11:30:29+00,2020/01/13 10:30:30+00,0,2020/01/14 09:25:20+00,,Closed,,20-00018214,Standard,1900 TREMONT STREET SE,402055.81,130904.57,38.84594094,-76.97631817,WASHINGTON,DC,20020,277983,8,
-77.08527499,38.95083493,17963,SPSTDAMA,Traffic Safety Investigation,Department of Transportation,DDOT,1,2020/01/13 10:05:23+00,1970/01/01 00:00:00+00,2020/07/20 11:05:23+00,2020/01/13 10:05:23+00,,1970/01/01 00:00:00+00,,In-Progress,,20-00018140,Standard,4326 CHESAPEAKE STREET NW,392608.39,142551,38.95082747,-77.08527268,WASHINGTON,DC,20016,265756,3,
-76.98889444,38.94715761,18178,SPSTDAMA,Traffic Safety Investigation,Department of Transportation,DDOT,1,2020/01/13 13:40:05+00,1970/01/01 00:00:00+00,2020/07/20 14:40:05+00,2020/01/13 13:40:05+00,,1970/01/01 00:00:00+00,,In-Progress,,20-00018708,Standard,4707 SARGENT ROAD NE,400962.9,142139.39,38.94715015,-76.98889216,WASHINGTON,DC,20017,18108,5,
-76.9849853,38.87978003,18317,SPSTDAMA,Traffic Safety Investigation,Department of Transportation,DDOT,1,2020/01/13 11:45:23+00,2020/01/14 09:30:20+00,2020/07/20 12:45:23+00,2020/01/13 11:45:23+00,0,2020/01/14 09:30:18+00,,Closed,,20-00018411,Standard,1401 PENNSYLVANIA AVENUE SE,401303,134659.97,38.87977225,-76.98498302,WASHINGTON,DC,20003,65127,6,
-77.07080525,38.95610741,18600,SPSTDAMA,Traffic Safety Investigation,Department of Transportation,DDOT,1,2020/01/13 16:07:56+00,2020/01/14 09:55:15+00,2020/07/20 17:07:56+00,2020/01/13 16:07:56+00,0,2020/01/14 09:55:14+00,,Closed,,20-00019113,Standard,5100 CONNECTICUT AVENUE NW,393863.11,143135.22,38.95609994,-77.07080294,WASHINGTON,DC,20008,264349,3,
-76.98608873,38.86885166,18613,SPSTDAMA,Traffic Safety Investigation,Department of Transportation,DDOT,1,2020/01/13 16:13:08+00,2020/02/13 09:35:27+00,2020/07/20 17:13:08+00,2020/01/13 16:13:08+00,0,2020/02/13 09:35:26+00,,Closed,,20-00019126,Standard,1300 - 1399 BLOCK OF RIDGE PLACE SE,401207.4423,133446.8242,38.86884388,-76.98608645,WASHINGTON,DC,20020,805438,8,
-77.00785432,38.90588889,18927,SPSTDAMA,Traffic Safety Investigation,Department of Transportation,DDOT,1,2020/01/13 15:24:07+00,2020/02/13 09:35:30+00,2020/07/20 16:24:06+00,2020/01/13 15:24:07+00,0,2020/02/13 09:35:29+00,,Closed,,20-00019014,Standard,22 M STREET NE,399318.94,137558.18,38.9058811,-77.00785204,WASHINGTON,DC,20002,313406,6,
-76.98499792,38.94201993,19328,SPSTDAMA,Traffic Safety Investigation,Department of Transportation,DDOT,1,2020/01/14 10:08:34+00,2020/05/04 15:40:06+00,2020/07/21 11:08:34+00,2020/01/14 10:08:34+00,0,2020/05/04 15:40:05+00,,Closed,,20-00020037,Standard,1401 MICHIGAN AVENUE NE,401300.77,141569.11,38.94201247,-76.98499564,WASHINGTON,DC,20017,286131,5,
-77.03884174,38.9325399,19408,SPSTDAMA,Traffic Safety Investigation,Department of Transportation,DDOT,1,2020/01/14 11:36:49+00,2020/02/14 09:30:09+00,2020/07/21 12:36:49+00,2020/01/14 11:36:49+00,0,2020/02/14 09:30:08+00,,Closed,,20-00020307,Standard,PARK ROAD NW AND MOUNT PLEASANT STREET NW,396632.4536,140517.3531,38.93253211,-77.03883944,WASHINGTON,DC,20010,900072,1,
-76.93911967,38.87179375,19423,SPSTDAMA,Traffic Safety Investigation,Department of Transportation,DDOT,1,2020/01/14 12:05:05+00,2020/02/14 09:30:12+00,2020/07/21 13:05:05+00,2020/01/14 12:05:05+00,0,2020/02/14 09:30:11+00,,Closed,,20-00020374,Standard,ALABAMA AVENUE SE AND BECK STREET SE,405283.28,133775.087,38.87178597,-76.9391174,WASHINGTON,DC,20019,907021,7,
-76.98478881,38.89596158,19487,SPSTDAMA,Traffic Safety Investigation,Department of Transportation,DDOT,1,2020/01/14 12:35:20+00,2020/04/06 14:20:04+00,2020/07/21 13:35:20+00,2020/01/14 12:35:20+00,0,2020/04/06 14:20:03+00,,Closed,,20-00020464,Standard,453 TENNESSEE AVENUE NE,401319.75,136456.25,38.89595413,-76.98478653,WASHINGTON,DC,20002,20013,6,
-77.00870817,38.95781235,19928,SPSTDAMA,Traffic Safety Investigation,Department of Transportation,DDOT,1,2020/01/14 15:22:12+00,2020/01/15 13:30:18+00,2020/07/21 16:22:12+00,2020/01/14 15:22:12+00,0,2020/01/15 13:30:17+00,,Closed,,20-00020953,Standard,5600 NEW HAMPSHIRE AVENUE NE,399245.43,143322.14,38.95780488,-77.00870588,WASHINGTON,DC,20011,7495,4,
-77.00906058,38.87929371,20022,SPSTDAMA,Traffic Safety Investigation,Department of Transportation,DDOT,1,2020/01/14 17:11:50+00,2020/01/15 13:25:14+00,2020/07/21 18:11:49+00,2020/01/14 17:11:50+00,0,2020/01/15 13:25:13+00,,Closed,,20-00021203,Standard,SOUTH CAPITOL STREET AND I STREET SW,399214.0203,134605.9165,38.87928593,-77.0090583,WASHINGTON,DC,20024,900101,6,
-77.00936268,38.91462921,20314,SPSTDAMA,Traffic Safety Investigation,Department of Transportation,DDOT,1,2020/01/14 16:21:11+00,2020/03/05 09:25:15+00,2020/07/21 17:21:11+00,2020/01/14 16:21:11+00,0,2020/03/05 09:25:13+00,,Closed,,20-00021098,Standard,1814 NORTH CAPITOL STREET NW,399188.21,138528.44,38.91462175,-77.00936039,WASHINGTON,DC,20002,227147,5,
-76.98591504,38.88080701,20397,SPSTDAMA,Traffic Safety Investigation,Department of Transportation,DDOT,1,2020/01/14 18:27:55+00,2020/02/14 09:30:15+00,2020/07/21 19:27:55+00,2020/01/14 18:27:55+00,0,2020/02/14 09:30:14+00,,Closed,,20-00021314,Standard,1354 PENNSYLVANIA AVENUE SE,401222.31,134773.96,38.88079956,-76.98591277,WASHINGTON,DC,20003,66023,6,
-76.95981325,38.88284412,20761,SPSTDAMA,Traffic Safety Investigation,Department of Transportation,DDOT,1,2020/01/15 15:22:45+00,2020/02/18 11:40:26+00,2020/07/22 16:22:44+00,2020/01/15 15:22:45+00,0,2020/02/18 11:40:24+00,,Closed,,20-00022813,Standard,33RD STREET SE AND E STREET SE,403486.99,135000.767,38.88283633,-76.95981098,WASHINGTON,DC,20019,905230,7,
-77.04554224,38.91735663,20788,SPSTDAMA,Traffic Safety Investigation,Department of Transportation,DDOT,1,2020/01/15 16:20:13+00,2020/02/18 11:40:19+00,2020/07/22 17:20:13+00,2020/01/15 16:20:13+00,0,2020/02/18 11:40:13+00,,Closed,,20-00022940,Standard,2022 COLUMBIA ROAD NW,396050.65,138832.15,38.91734918,-77.04553995,WASHINGTON,DC,20009,226185,1,
-77.00149674,38.84254414,21095,SPSTDAMA,Traffic Safety Investigation,Department of Transportation,DDOT,1,2020/01/15 10:11:48+00,1970/01/01 00:00:00+00,2020/07/22 11:11:48+00,2020/01/15 10:11:48+00,,1970/01/01 00:00:00+00,,In-Progress,,20-00022059,Standard,3300 MARTIN LUTHER KING JR AVENUE SE,399870.26,130526.41,38.8425367,-77.00149446,WASHINGTON,DC,20032,37156,8,
-77.05141027,38.90526885,21152,SPSTDAMA,Traffic Safety Investigation,Department of Transportation,DDOT,1,2020/01/15 10:32:53+00,2020/01/17 09:00:09+00,2020/07/22 11:32:53+00,2020/01/15 10:32:53+00,0,2020/01/17 09:00:08+00,,Closed,,20-00022128,Standard,24TH STREET NW AND M STREET NW,395541.0035,137490.5779,38.90526107,-77.05140797,WASHINGTON,DC,20037,903002,2,
-77.03357435,38.92156352,22577,SPSTDAMA,Traffic Safety Investigation,Department of Transportation,DDOT,1,2020/01/16 12:42:51+00,2020/01/21 10:40:22+00,2020/07/23 13:42:51+00,2020/01/16 12:42:51+00,0,2020/01/21 10:40:21+00,,Closed,,20-00024167,Standard,1400 - 1499 BLOCK OF CHAPIN STREET NW,397088.71,139298.7,38.92155573,-77.03357206,WASHINGTON,DC,20009,810296,1,
-76.94775625,38.88979366,22641,SPSTDAMA,Traffic Safety Investigation,Department of Transportation,DDOT,1,2020/01/16 15:03:45+00,2020/02/18 11:35:16+00,2020/07/23 16:03:44+00,2020/01/16 15:03:45+00,0,2020/02/18 11:35:14+00,,Closed,,20-00024505,Standard,3956 - 3999 BLOCK OF EAST CAPITOL STREET,404532.67,135772.75,38.88978588,-76.94775398,WASHINGTON,DC,20019,809930,7,
-77.02230102,38.9017884,23111,SPSTDAMA,Traffic Safety Investigation,Department of Transportation,DDOT,1,2020/01/16 15:25:25+00,2020/02/20 08:30:09+00,2020/07/23 16:25:25+00,2020/01/16 15:25:25+00,0,2020/02/20 08:30:08+00,,Closed,,20-00024571,Standard,700 K STREET NW,398065.77,137103.2,38.90178061,-77.02229873,WASHINGTON,DC,20001,319934,2,
-76.99269149,38.9254471,23332,SPSTDAMA,Traffic Safety Investigation,Department of Transportation,DDOT,1,2020/01/17 07:59:02+00,2020/01/21 11:41:06+00,2020/07/24 08:59:02+00,2020/01/17 07:59:02+00,0,2020/01/21 11:41:04+00,,Closed,,20-00025101,Standard,2732 10TH STREET NE,400633.94,139729.3,38.92543964,-76.99268921,WASHINGTON,DC,20018,44930,5,
-77.04165842,38.91678841,23392,SPSTDAMA,Traffic Safety Investigation,Department of Transportation,DDOT,1,2020/01/16 17:07:00+00,2020/01/17 09:30:13+00,2020/07/23 18:07:00+00,2020/01/16 17:07:00+00,0,2020/01/17 09:30:12+00,,Closed,,20-00024754,Standard,FLORIDA AVENUE NW AND 18TH STREET NW,396387.4375,138768.912,38.91678062,-77.04165612,WASHINGTON,DC,20009,904132,NULL,
-76.99153252,38.88280082,23536,SPSTDAMA,Traffic Safety Investigation,Department of Transportation,DDOT,1,2020/01/17 07:33:21+00,2020/02/20 08:25:20+00,2020/07/24 08:33:21+00,2020/01/17 07:33:21+00,0,2020/02/20 08:25:19+00,,Closed,,20-00025076,Standard,11TH STREET SE AND PENNSYLVANIA AVENUE SE,400734.8773,134995.2277,38.88279304,-76.99153024,WASHINGTON,DC,20003,900348,6,
-77.02164002,38.97107568,23601,SPSTDAMA,Traffic Safety Investigation,Department of Transportation,DDOT,1,2020/01/17 10:10:13+00,2020/01/21 11:40:07+00,2020/07/24 11:10:13+00,2020/01/17 10:10:13+00,0,2020/01/21 11:40:06+00,,Closed,,20-00025353,Standard,600 WHITTIER STREET NW,398124.93,144794.68,38.97106821,-77.02163773,WASHINGTON,DC,20012,250831,4,
-76.9573076,38.86033809,23685,SPSTDAMA,Traffic Safety Investigation,Department of Transportation,DDOT,1,2020/01/17 08:38:51+00,1970/01/01 00:00:00+00,2020/07/24 09:38:51+00,2020/01/17 08:38:51+00,,1970/01/01 00:00:00+00,,In-Progress,,20-00025152,Standard,3401 BANGOR STREET SE,403705.56,132502.53,38.86033065,-76.95730533,WASHINGTON,DC,20020,35292,7,
-77.01893674,38.8948106,23787,SPSTDAMA,Traffic Safety Investigation,Department of Transportation,DDOT,1,2020/01/17 09:53:51+00,2020/01/21 10:50:09+00,2020/07/24 10:53:51+00,2020/01/17 09:53:51+00,0,2020/01/21 10:50:08+00,,Closed,,20-00025321,Standard,5TH STREET NW AND INDIANA AVENUE NW,398357.4327,136328.5426,38.89480281,-77.01893445,WASHINGTON,DC,20001,900733,2,
-77.03195412,38.90965574,24076,SPSTDAMA,Traffic Safety Investigation,Department of Transportation,DDOT,1,2020/01/17 12:44:52+00,2020/02/20 08:25:17+00,2020/07/24 13:44:52+00,2020/01/17 12:44:52+00,0,2020/02/20 08:25:16+00,,Closed,,20-00025692,Standard,14TH STREET NW AND P STREET NW,397228.75,137976.787,38.90964795,-77.03195183,WASHINGTON,DC,20005,906403,2,
-77.03195412,38.90965574,24266,SPSTDAMA,Traffic Safety Investigation,Department of Transportation,DDOT,1,2020/01/17 16:49:05+00,2020/01/21 11:00:15+00,2020/07/24 17:49:05+00,2020/01/17 16:49:05+00,0,2020/01/21 11:00:13+00,,Closed,,20-00026232,Standard,14TH STREET NW AND P STREET NW,397228.75,137976.787,38.90964795,-77.03195183,WASHINGTON,DC,20005,906403,2,
-76.97014532,38.92665684,24378,SPSTDAMA,Traffic Safety Investigation,Department of Transportation,DDOT,1,2020/01/17 14:57:53+00,2020/03/02 11:10:34+00,2020/07/24 15:57:53+00,2020/01/17 14:57:53+00,0,2020/03/02 11:10:33+00,,Closed,,20-00026013,Standard,2800 - 2999 BLOCK OF 26TH STREET NE,402588.94,139863.99,38.92664905,-76.97014305,WASHINGTON,DC,20018,807078,5,
-77.08269114,38.96015134,24433,SPSTDAMA,Traffic Safety Investigation,Department of Transportation,DDOT,1,2020/01/17 16:00:15+00,2020/03/02 11:11:15+00,2020/07/24 17:00:15+00,2020/01/17 16:00:15+00,0,2020/03/02 11:11:13+00,,Closed,,20-00026145,Standard,5327 42ND PLACE NW,392833.3,143585,38.96014388,-77.08268883,WASHINGTON,DC,20015,266043,3,
-77.01938717,38.93432566,24510,SPSTDAMA,Traffic Safety Investigation,Department of Transportation,DDOT,1,2020/01/17 18:26:20+00,2020/01/22 10:00:12+00,2020/07/24 19:26:20+00,2020/01/17 18:26:20+00,0,2020/01/22 10:00:11+00,,Closed,,20-00026346,Standard,3600 PARK PLACE NW,398319.29,140715.05,38.9343182,-77.01938487,WASHINGTON,DC,20010,228661,1,
-77.00534665,38.82172832,24623,SPSTDAMA,Traffic Safety Investigation,Department of Transportation,DDOT,1,2020/01/18 12:26:28+00,2020/03/02 11:15:29+00,2020/07/24 13:26:28+00,2020/01/18 12:26:28+00,0,2020/03/02 11:15:27+00,,Closed,,20-00026650,Standard,JOLIET STREET SW AND 1ST STREET SW,399535.9,128215.727,38.82172055,-77.00534437,WASHINGTON,DC,20032,904280,8,
-77.04659201,38.91468588,24715,SPSTDAMA,Traffic Safety Investigation,Department of Transportation,DDOT,1,2020/01/18 03:53:40+00,2020/01/22 09:55:18+00,2020/07/24 04:53:40+00,2020/01/18 03:53:40+00,0,2020/01/22 09:55:17+00,,Closed,,20-00026468,Standard,1810 CONNECTICUT AVENUE NW,395959.46,138535.72,38.91467842,-77.04658971,WASHINGTON,DC,20009,235101,2,
-77.03135517,38.89501014,24827,SPSTDAMA,Traffic Safety Investigation,Department of Transportation,DDOT,1,2020/01/18 13:25:34+00,2020/01/22 09:55:25+00,2020/07/24 14:25:34+00,2020/01/18 13:25:34+00,0,2020/01/22 09:55:24+00,,Closed,,20-00026706,Standard,1350 PENNSYLVANIA AVENUE NW,397280.14,136350.99,38.89500269,-77.03135287,WASHINGTON,DC,20004,293203,2,
-76.9604345,38.87549846,24830,SPSTDAMA,Traffic Safety Investigation,Department of Transportation,DDOT,1,2020/01/18 13:28:18+00,2020/01/21 12:05:20+00,2020/07/24 14:28:18+00,2020/01/18 13:28:18+00,0,2020/01/21 12:05:19+00,,Closed,,20-00026709,Standard,3211 M STREET SE,403433.44,134185.32,38.87549101,-76.96043223,WASHINGTON,DC,20019,38497,7,
-77.05865952,38.95178881,25314,SPSTDAMA,Traffic Safety Investigation,Department of Transportation,DDOT,1,2020/01/18 20:33:46+00,2020/02/24 08:30:08+00,2020/07/24 21:33:46+00,2020/01/18 20:33:46+00,0,2020/02/24 08:30:07+00,,Closed,,20-00026886,Standard,2856 DAVENPORT STREET NW,394915.54,142655.07,38.95178135,-77.05865722,WASHINGTON,DC,20008,219563,3,
-77.04325129,38.96148133,25675,SPSTDAMA,Traffic Safety Investigation,Department of Transportation,DDOT,1,2020/01/19 16:12:29+00,2020/01/22 09:50:08+00,2020/07/24 17:12:29+00,2020/01/19 16:12:29+00,0,2020/01/22 09:50:07+00,,Closed,,20-00027154,Standard,MILITARY ROAD NW OVER BEACH DRIVE NW,396251.6485,143730.2825,38.96147353,-77.04324899,WASHINGTON,DC,20011,912700,4,
-77.05367231,38.90344141,25793,SPSTDAMA,Traffic Safety Investigation,Department of Transportation,DDOT,1,2020/01/20 12:57:13+00,2020/02/24 08:25:11+00,2020/07/24 13:57:13+00,2020/01/20 12:57:13+00,0,2020/02/24 08:25:10+00,,Closed,,20-00027484,Standard,2500 PENNSYLVANIA AVENUE NW,395344.68,137287.83,38.90343396,-77.05367001,WASHINGTON,DC,20037,273885,2,
-77.00809123,38.96871103,26756,SPSTDAMA,Traffic Safety Investigation,Department of Transportation,DDOT,1,2020/01/21 09:37:20+00,1970/01/01 00:00:00+00,2020/07/27 10:37:19+00,2020/01/21 09:37:20+00,,1970/01/01 00:00:00+00,,In-Progress,,20-00028144,Standard,17 UNDERWOOD PLACE NE,399299.01,144531.99,38.96870356,-77.00808894,WASHINGTON,DC,20012,57959,4,
-76.9883523,38.89201147,26939,SPSTDAMA,Traffic Safety Investigation,Department of Transportation,DDOT,1,2020/01/21 10:25:39+00,2020/01/22 09:40:23+00,2020/07/27 11:25:39+00,2020/01/21 10:25:39+00,0,2020/01/22 09:40:22+00,,Closed,,20-00028294,Standard,13TH STREET NE AND TENNESSEE AVENUE NE,401010.6779,136017.7108,38.89200368,-76.98835002,WASHINGTON,DC,20002,906917,6,
-77.05807081,38.90038241,26994,SPSTDAMA,Traffic Safety Investigation,Department of Transportation,DDOT,1,2020/01/21 11:08:31+00,2020/05/19 10:15:13+00,2020/07/27 12:08:31+00,2020/01/21 11:08:31+00,0,2020/05/19 10:15:12+00,,Closed,,20-00028418,Standard,2900 VIRGINIA AVENUE NW,394962.94,136948.49,38.90037496,-77.05806851,WASHINGTON,DC,20037,273873,2,
-77.01677982,38.97489174,27376,SPSTDAMA,Traffic Safety Investigation,Department of Transportation,DDOT,1,2020/01/21 16:05:29+00,1970/01/01 00:00:00+00,2020/07/27 17:05:29+00,2020/01/21 16:05:29+00,,1970/01/01 00:00:00+00,,In-Progress,,20-00029144,Standard,314 CARROLL STREET NW,398546.18,145218.21,38.97488427,-77.01677753,WASHINGTON,DC,20012,295751,4,
-77.06930902,38.96468885,27532,SPSTDAMA,Traffic Safety Investigation,Department of Transportation,DDOT,1,2020/01/21 14:36:56+00,1970/01/01 00:00:00+00,2020/07/27 15:36:55+00,2020/01/21 14:36:56+00,,1970/01/01 00:00:00+00,,In-Progress,,20-00028953,Standard,3502 MCKINLEY STREET NW,393993.52,144087.74,38.96468139,-77.06930671,WASHINGTON,DC,20015,263122,3,
-77.04490437,38.90134564,27557,SPSTDAMA,Traffic Safety Investigation,Department of Transportation,DDOT,1,2020/01/21 15:10:49+00,2020/01/22 10:00:09+00,2020/07/27 16:10:49+00,2020/01/21 15:10:49+00,0,2020/01/22 10:00:08+00,,Closed,,20-00029032,Standard,20TH STREET NW AND I STREET NW,396105.0938,137054.7714,38.90133785,-77.04490207,WASHINGTON,DC,20006,901003,2,
-77.02010207,38.91607775,27596,SPSTDAMA,Traffic Safety Investigation,Department of Transportation,DDOT,1,2020/01/21 15:36:56+00,1970/01/01 00:00:00+00,2020/07/27 16:36:56+00,2020/01/21 15:36:56+00,,1970/01/01 00:00:00+00,,In-Progress,,20-00029086,Standard,1900 - 1999 BLOCK OF 6TH STREET NW,398256.86,138689.39,38.91606996,-77.02009978,WASHINGTON,DC,20001,801659,1,
-77.01677982,38.97489174,27611,SPSTDAMA,Traffic Safety Investigation,Department of Transportation,DDOT,1,2020/01/21 15:47:33+00,1970/01/01 00:00:00+00,2020/07/27 16:47:33+00,2020/01/21 15:47:33+00,,1970/01/01 00:00:00+00,,In-Progress,,20-00029104,Standard,314 CARROLL STREET NW,398546.18,145218.21,38.97488427,-77.01677753,WASHINGTON,DC,20012,295751,4,
-76.99148374,38.83151253,27917,SPSTDAMA,Traffic Safety Investigation,Department of Transportation,DDOT,1,2020/01/22 08:44:00+00,2020/01/23 10:00:16+00,2020/07/28 09:44:00+00,2020/01/22 08:44:00+00,0,2020/01/23 10:00:15+00,,Closed,,20-00029746,Standard,885 BARNABY STREET SE,400739.64,129301.86,38.83150476,-76.99148147,WASHINGTON,DC,20032,81585,8,
-76.98883838,38.89186431,28078,SPSTDAMA,Traffic Safety Investigation,Department of Transportation,DDOT,1,2020/01/22 10:35:50+00,2020/01/23 10:00:36+00,2020/07/28 11:35:50+00,2020/01/22 10:35:50+00,0,2020/01/23 10:00:35+00,,Closed,,20-00030086,Standard,164 TENNESSEE AVENUE NE,400968.51,136001.37,38.89185686,-76.9888361,WASHINGTON,DC,20002,58625,6,
-77.02458859,38.9043746,28264,SPSTDAMA,Traffic Safety Investigation,Department of Transportation,DDOT,1,2020/01/22 10:58:34+00,2020/02/24 09:40:09+00,2020/07/28 11:58:34+00,2020/01/22 10:58:34+00,0,2020/02/24 09:40:08+00,,Closed,,20-00030148,Standard,913 L STREET NW,397867.42,137390.34,38.90436715,-77.0245863,WASHINGTON,DC,20001,239804,2,
-77.00220877,38.84383315,28295,SPSTDAMA,Traffic Safety Investigation,Department of Transportation,DDOT,1,2020/01/22 11:12:11+00,2020/03/26 14:10:06+00,2020/07/28 12:12:11+00,2020/01/22 11:12:11+00,0,2020/03/26 14:10:05+00,,Closed,,20-00030186,Standard,3101 WACLARK PLACE SE,399808.45,130669.5,38.8438257,-77.00220649,WASHINGTON,DC,20032,40528,8,
-77.01518097,38.89689158,28576,SPSTDAMA,Traffic Safety Investigation,Department of Transportation,DDOT,1,2020/01/22 13:11:05+00,2020/02/24 09:40:07+00,2020/07/28 14:11:05+00,2020/01/22 13:11:05+00,0,2020/02/24 09:40:06+00,,Closed,,20-00030447,Standard,3RD STREET NW AND RAMP FROM INTERSTATE 395 SOUTHBOUND,398683.2851,136559.4873,38.8968838,-77.01517868,WASHINGTON,DC,20001,913065,2,
-76.92847055,38.90330249,28577,SPSTDAMA,Traffic Safety Investigation,Department of Transportation,DDOT,1,2020/01/22 13:11:35+00,2020/01/23 10:00:24+00,2020/07/28 14:11:35+00,2020/01/22 13:11:35+00,0,2020/01/23 10:00:22+00,,Closed,,20-00030449,Standard,5069 SHERIFF ROAD NE,406204.65,137273.47,38.90329503,-76.92846829,WASHINGTON,DC,20019,14037,7,
-76.9684925,38.85927955,29541,SPSTDAMA,Traffic Safety Investigation,Department of Transportation,DDOT,1,2020/01/23 09:42:16+00,2020/01/24 09:15:07+00,2020/07/29 10:42:16+00,2020/01/23 09:42:16+00,0,2020/01/24 09:15:06+00,,Closed,,20-00031715,Standard,2701 NAYLOR ROAD SE,402734.84,132384.63,38.85927211,-76.96849023,WASHINGTON,DC,20020,294547,8,
-77.00837813,38.90425473,29629,SPSTDAMA,Traffic Safety Investigation,Department of Transportation,DDOT,1,2020/01/23 10:31:01+00,2020/01/28 08:55:06+00,2020/07/29 11:31:01+00,2020/01/23 10:31:01+00,0,2020/01/28 08:55:05+00,,Closed,,20-00031837,Standard,1111 NORTH CAPITOL STREET NE,399273.49,137376.78,38.90424695,-77.00837585,WASHINGTON,DC,20002,285852,6,
-77.03845826,38.94038767,29644,SPSTDAMA,Traffic Safety Investigation,Department of Transportation,DDOT,1,2020/01/23 10:36:57+00,2020/01/24 09:20:14+00,2020/07/29 11:36:57+00,2020/01/23 10:36:57+00,0,2020/01/24 09:20:13+00,,Closed,,20-00031855,Standard,4020 17TH STREET NW,396666.07,141388.51,38.94038021,-77.03845596,WASHINGTON,DC,20011,258315,4,
-77.01181048,38.82887331,29649,SPSTDAMA,Traffic Safety Investigation,Department of Transportation,DDOT,1,2020/01/23 10:38:00+00,2020/02/24 09:50:09+00,2020/07/29 11:38:00+00,2020/01/23 10:38:00+00,0,2020/02/24 09:50:08+00,,Closed,,20-00031860,Standard,177 CHESAPEAKE STREET SW,398974.69,129008.92,38.82886587,-77.0118082,WASHINGTON,DC,20032,56422,8,
-77.03835954,38.94000449,29653,SPSTDAMA,Traffic Safety Investigation,Department of Transportation,DDOT,1,2020/01/23 10:47:27+00,2020/02/24 09:45:30+00,2020/07/29 11:47:27+00,2020/01/23 10:47:27+00,0,2020/02/24 09:45:29+00,,Closed,,20-00031889,Standard,4000 17TH STREET NW,396674.61,141345.97,38.93999703,-77.03835725,WASHINGTON,DC,20011,258316,4,
-76.97734006,38.92752254,30158,SPSTDAMA,Traffic Safety Investigation,Department of Transportation,DDOT,1,2020/01/23 15:28:39+00,2020/02/24 09:45:17+00,2020/07/29 16:28:38+00,2020/01/23 15:28:39+00,0,2020/02/24 09:45:16+00,,Closed,,20-00032444,Standard,1833 HAMLIN STREET NE,401965.05,139959.91,38.92751508,-76.97733778,WASHINGTON,DC,20018,55151,5,
-77.05298357,38.95036662,30426,SPSTDAMA,Traffic Safety Investigation,Department of Transportation,DDOT,1,2020/01/23 16:16:56+00,2020/01/24 09:20:25+00,2020/07/29 17:16:56+00,2020/01/23 16:16:56+00,0,2020/01/24 09:20:24+00,,Closed,,20-00032529,Standard,BROAD BRANCH ROAD NW AND BRANDYWINE STREET NW,395407.4445,142496.8929,38.95035882,-77.05298127,WASHINGTON,DC,20008,906957,3,
-77.02440802,38.89924969,30645,SPSTDAMA,Traffic Safety Investigation,Department of Transportation,DDOT,1,2020/01/24 06:00:29+00,2020/01/27 10:25:26+00,2020/07/30 07:00:28+00,2020/01/24 06:00:29+00,0,2020/01/27 10:25:25+00,,Closed,,20-00032890,Standard,724 9TH STREET NW,397882.93,136821.43,38.89924224,-77.02440573,WASHINGTON,DC,20001,279912,2,
-77.04235066,38.98745179,30928,SPSTDAMA,Traffic Safety Investigation,Department of Transportation,DDOT,1,2020/01/24 15:02:59+00,2020/01/28 09:50:05+00,2020/07/30 16:02:59+00,2020/01/24 15:02:59+00,0,2020/01/28 09:50:04+00,,Closed,,20-00033819,Standard,PORTAL DRIVE NW AND EAST BEACH DRIVE NW,396331.043,146613.2159,38.98744399,-77.04234836,WASHINGTON,DC,20012,911139,4,
-77.07701093,38.93142037,30939,SPSTDAMA,Traffic Safety Investigation,Department of Transportation,DDOT,1,2020/01/24 15:06:29+00,2020/01/27 10:20:05+00,2020/07/30 16:06:28+00,2020/01/24 15:06:29+00,0,2020/01/27 10:20:03+00,,Closed,,20-00033831,Standard,MASSACHUSETTS AVENUE NW AND IDAHO AVENUE NW,393322.9172,140395.1758,38.93141258,-77.07700862,WASHINGTON,DC,20016,904160,3,
-76.9581127,38.85491727,31078,SPSTDAMA,Traffic Safety Investigation,Department of Transportation,DDOT,1,2020/01/24 11:14:27+00,2020/03/23 12:30:06+00,2020/07/30 12:14:27+00,2020/01/24 11:14:27+00,0,2020/03/23 12:30:05+00,,Closed,,20-00033344,Standard,SOUTHERN AVENUE SE AND BRANCH AVENUE SE,403635.96,131900.747,38.85490949,-76.95811043,WASHINGTON,DC,20020,901200,7,
-77.03548603,38.92633328,31471,SPSTDAMA,Traffic Safety Investigation,Department of Transportation,DDOT,1,2020/01/25 08:31:39+00,2020/01/27 10:30:12+00,2020/07/30 09:31:39+00,2020/01/25 08:31:39+00,0,2020/01/27 10:30:11+00,,Closed,,20-00034342,Standard,15TH STREET NW AND HARVARD STREET NW,396923.14,139828.247,38.92632549,-77.03548373,WASHINGTON,DC,20009,902621,1,
-76.99013907,38.90606566,32317,SPSTDAMA,Traffic Safety Investigation,Department of Transportation,DDOT,1,2020/01/26 13:39:33+00,2020/02/27 08:40:07+00,2020/07/30 14:39:33+00,2020/01/26 13:39:33+00,0,2020/02/27 08:40:06+00,,Closed,,20-00035174,Standard,1109 OATES STREET NE,400855.5,137577.82,38.9060582,-76.99013679,WASHINGTON,DC,20002,74214,5,
-76.99726942,38.88476179,32376,SPSTDAMA,Traffic Safety Investigation,Department of Transportation,DDOT,1,2020/01/25 09:57:01+00,2020/01/27 10:30:09+00,2020/07/30 10:57:01+00,2020/01/25 09:57:01+00,0,2020/01/27 10:30:08+00,,Closed,,20-00034425,Standard,635 PENNSYLVANIA AVENUE SE,400237.11,135212.88,38.88475434,-76.99726713,WASHINGTON,DC,20003,2533,6,
-77.00659975,38.83523009,33395,SPSTDAMA,Traffic Safety Investigation,Department of Transportation,DDOT,1,2020/01/27 14:07:19+00,2020/02/27 08:40:09+00,2020/07/31 15:07:18+00,2020/01/27 14:07:19+00,0,2020/02/27 08:40:08+00,,Closed,,20-00036370,Standard,14 HALLEY PLACE SE,399427.19,129714.52,38.83522265,-77.00659747,WASHINGTON,DC,20032,145488,8,
-76.95860798,38.87061698,33430,SPSTDAMA,Traffic Safety Investigation,Department of Transportation,DDOT,1,2020/01/27 14:30:41+00,2020/01/28 08:50:05+00,2020/07/31 15:30:41+00,2020/01/27 14:30:41+00,0,2020/01/28 08:50:04+00,,Closed,,20-00036429,Standard,3240 O STREET SE,403592.18,133643.51,38.87060953,-76.95860571,WASHINGTON,DC,20020,37701,7,
-76.98280377,38.84618632,33771,SPSTDAMA,Traffic Safety Investigation,Department of Transportation,DDOT,1,2020/01/27 13:44:50+00,2020/01/28 08:45:11+00,2020/07/31 14:44:50+00,2020/01/27 13:44:50+00,0,2020/01/28 08:45:10+00,,Closed,,20-00036308,Standard,ALABAMA AVENUE SE AND 15TH PLACE SE,401492.99,130930.857,38.84617854,-76.9828015,WASHINGTON,DC,20032,906743,8,
-76.99821769,38.94292234,34373,SPSTDAMA,Traffic Safety Investigation,Department of Transportation,DDOT,1,2020/01/28 08:42:29+00,2020/02/28 08:55:09+00,2020/08/03 09:42:29+00,2020/01/28 08:42:29+00,0,2020/02/28 08:55:08+00,,Closed,,20-00037160,Standard,4200 - 4999 BLOCK OF PUERTO RICO AVENUE NE,400154.71,141669.18,38.94291454,-76.9982154,WASHINGTON,DC,20017,803657,5,
-77.03991778,38.98970506,34527,SPSTDAMA,Traffic Safety Investigation,Department of Transportation,DDOT,1,2020/01/28 12:00:01+00,2020/02/10 14:06:51+00,2020/08/03 13:00:01+00,2020/01/28 12:00:01+00,0,2020/02/10 14:06:50+00,,Closed,,20-00037720,Standard,BIRCH DRIVE NW AND NORTH PORTAL DRIVE NW,396541.9307,146863.2559,38.98969725,-77.03991548,WASHINGTON,DC,20012,901774,4,
-76.9881531,38.83147174,34702,SPSTDAMA,Traffic Safety Investigation,Department of Transportation,DDOT,1,2020/01/28 10:47:56+00,2020/04/21 08:20:19+00,2020/08/03 11:47:56+00,2020/01/28 10:47:56+00,0,2020/04/21 08:20:18+00,,Closed,,20-00037514,Standard,900 - 999 BLOCK OF SOUTHERN AVENUE SE,401028.8307,129297.3641,38.83146397,-76.98815083,WASHINGTON,DC,20032,801338,8,
-77.03778124,38.99123898,34827,SPSTDAMA,Traffic Safety Investigation,Department of Transportation,DDOT,1,2020/01/28 11:55:35+00,2020/02/10 14:06:54+00,2020/08/03 12:55:35+00,2020/01/28 11:55:35+00,0,2020/02/10 14:06:53+00,,Closed,,20-00037706,Standard,TAMARACK STREET NW AND NORTH PORTAL DRIVE NW,396727.1,147033.457,38.99123117,-77.03777894,WASHINGTON,DC,20012,901019,4,
-76.99243322,38.892336,35020,SPSTDAMA,Traffic Safety Investigation,Department of Transportation,DDOT,1,2020/01/28 15:29:34+00,2020/02/28 08:55:12+00,2020/08/03 16:29:34+00,2020/01/28 15:29:34+00,0,2020/02/28 08:55:10+00,,Closed,,20-00038240,Standard,205 10TH STREET NE,400656.64,136053.7,38.89232855,-76.99243094,WASHINGTON,DC,20002,52187,6,
-77.02534858,38.95434525,35708,SPSTDAMA,Traffic Safety Investigation,Department of Transportation,DDOT,1,2020/01/29 11:16:47+00,2020/03/02 11:10:25+00,2020/08/04 12:16:47+00,2020/01/29 11:16:47+00,0,2020/03/02 11:10:23+00,,Closed,,20-00039226,Standard,837 INGRAHAM STREET NW,397803.04,142937.53,38.95433779,-77.02534629,WASHINGTON,DC,20011,254690,4,
-76.98872218,38.95469049,36146,SPSTDAMA,Traffic Safety Investigation,Department of Transportation,DDOT,1,2020/01/29 13:11:51+00,2020/01/30 14:35:55+00,2020/08/04 14:11:51+00,2020/01/29 13:11:51+00,0,2020/01/30 14:35:54+00,,Closed,,20-00039508,Standard,5182 EASTERN AVENUE NE,400977.73,142975.61,38.95468303,-76.98871989,WASHINGTON,DC,20011,288540,5,
-76.98872218,38.95469049,36147,SPSTDAMA,Traffic Safety Investigation,Department of Transportation,DDOT,1,2020/01/29 13:11:54+00,2020/01/30 14:35:48+00,2020/08/04 14:11:54+00,2020/01/29 13:11:54+00,0,2020/01/30 14:35:47+00,,Closed,,20-00039509,Standard,5182 EASTERN AVENUE NE,400977.73,142975.61,38.95468303,-76.98871989,WASHINGTON,DC,20011,288540,5,
-77.00115768,38.85297159,36644,SPSTDAMA,Traffic Safety Investigation,Department of Transportation,DDOT,1,2020/01/30 04:13:40+00,2020/01/31 11:05:38+00,2020/08/05 05:13:40+00,2020/01/30 04:13:40+00,0,2020/01/31 11:05:37+00,,Closed,,20-00040351,Standard,2701 MARTIN LUTHER KING JR AVENUE SE,399899.71,131683.93,38.85296415,-77.0011554,WASHINGTON,DC,20593,307858,8,
-77.06253974,38.90538407,36721,SPSTDAMA,Traffic Safety Investigation,Department of Transportation,DDOT,1,2020/01/30 10:20:11+00,1970/01/01 00:00:00+00,2020/08/05 11:20:10+00,2020/01/30 10:20:11+00,,1970/01/01 00:00:00+00,,In-Progress,,20-00040734,Standard,1201 WISCONSIN AVENUE NW,394575.67,137503.97,38.90537661,-77.06253744,WASHINGTON,DC,20007,272025,2,
-77.06253974,38.90538407,37290,SPSTDAMA,Traffic Safety Investigation,Department of Transportation,DDOT,1,2020/01/30 10:09:49+00,2020/01/31 11:25:20+00,2020/08/05 11:09:49+00,2020/01/30 10:09:49+00,0,2020/01/31 11:25:19+00,,Closed,,20-00040707,Standard,1201 WISCONSIN AVENUE NW,394575.67,137503.97,38.90537661,-77.06253744,WASHINGTON,DC,20007,272025,2,
-77.0503385,38.9015842,37436,SPSTDAMA,Traffic Safety Investigation,Department of Transportation,DDOT,1,2020/01/30 14:42:06+00,2020/03/02 11:25:14+00,2020/08/05 15:42:05+00,2020/01/30 14:42:06+00,0,2020/03/02 11:25:13+00,,Closed,,20-00041327,Standard,900 23RD STREET NW,395633.74,137081.5,38.90157642,-77.0503362,WASHINGTON,DC,20037,242349,2,
-77.02235913,38.9794002,37449,SPSTDAMA,Traffic Safety Investigation,Department of Transportation,DDOT,1,2020/01/30 11:14:04+00,1970/01/01 00:00:00+00,2020/08/05 12:14:04+00,2020/01/30 11:14:04+00,,1970/01/01 00:00:00+00,,In-Progress,,20-00040869,Standard,GERANIUM STREET NW AND BLAIR ROAD NW,398062.84,145718.797,38.9793924,-77.02235684,WASHINGTON,DC,20012,901533,4,
-76.99833874,38.90623809,37525,SPSTDAMA,Traffic Safety Investigation,Department of Transportation,DDOT,1,2020/01/30 12:06:06+00,2020/03/02 11:25:17+00,2020/08/05 13:06:06+00,2020/01/30 12:06:06+00,0,2020/03/02 11:25:16+00,,Closed,,20-00040973,Standard,6TH STREET NE AND FLORIDA AVENUE NE,400144.29,137596.917,38.90623031,-76.99833645,WASHINGTON,DC,20002,904083,NULL,
-76.99444454,38.90297085,37818,SPSTDAMA,Traffic Safety Investigation,Department of Transportation,DDOT,1,2020/01/30 16:15:15+00,2020/01/31 11:10:19+00,2020/08/05 17:15:15+00,2020/01/30 16:15:15+00,0,2020/01/31 11:10:17+00,,Closed,,20-00041529,Standard,811 WEST VIRGINIA AVENUE NE,400482.08,137234.24,38.9029634,-76.99444226,WASHINGTON,DC,20002,80115,6,
-76.9768237,38.89182822,38051,SPSTDAMA,Traffic Safety Investigation,Department of Transportation,DDOT,1,2020/01/31 10:36:01+00,2020/02/03 10:51:05+00,2020/08/06 11:36:01+00,2020/01/31 10:36:01+00,0,2020/02/03 10:51:04+00,,Closed,,20-00042153,Standard,1909 CONSTITUTION AVENUE NE,402010.83,135997.56,38.89182077,-76.97682142,WASHINGTON,DC,20002,54300,6,
-77.05549325,38.93037611,38171,SPSTDAMA,Traffic Safety Investigation,Department of Transportation,DDOT,1,2020/01/31 07:58:44+00,2020/03/05 09:19:11+00,2020/08/06 08:58:44+00,2020/01/31 07:58:44+00,0,2020/03/05 09:19:10+00,,Closed,,20-00041889,Standard,3000 - 3199 BLOCK OF CONNECTICUT AVENUE NW,395188.55,140277.9,38.93036832,-77.05549095,WASHINGTON,DC,20008,803266,3,
-76.98076832,38.88410819,38241,SPSTDAMA,Traffic Safety Investigation,Department of Transportation,DDOT,1,2020/01/31 09:37:39+00,2020/02/05 09:40:13+00,2020/08/06 10:37:39+00,2020/01/31 09:37:39+00,0,2020/02/05 09:40:12+00,,Closed,,20-00042046,Standard,D STREET SE AND 17TH STREET SE,401668.8,135140.497,38.8841004,-76.98076604,WASHINGTON,DC,20003,901805,6,
-77.02274327,38.95137171,38285,SPSTDAMA,Traffic Safety Investigation,Department of Transportation,DDOT,1,2020/01/31 10:48:22+00,2020/02/03 10:55:15+00,2020/08/06 11:48:22+00,2020/01/31 10:48:22+00,0,2020/02/03 10:55:14+00,,Closed,,20-00042176,Standard,5013 7TH PLACE NW,398028.78,142607.38,38.95136425,-77.02274098,WASHINGTON,DC,20011,250062,4,
-77.00273066,38.84269879,38339,SPSTDAMA,Traffic Safety Investigation,Department of Transportation,DDOT,1,2020/01/31 12:06:20+00,2020/03/04 10:25:11+00,2020/08/06 13:06:20+00,2020/01/31 12:06:20+00,0,2020/03/04 10:25:10+00,,Closed,,20-00042331,Standard,3325 MARTIN LUTHER KING JR AVENUE SE,399763.14,130543.58,38.84269135,-77.00272838,WASHINGTON,DC,20032,36347,8,
-76.97964284,38.92774258,40221,SPSTDAMA,Traffic Safety Investigation,Department of Transportation,DDOT,1,2020/02/03 10:49:07+00,2020/02/04 10:55:19+00,2020/08/07 11:49:07+00,2020/02/03 10:49:07+00,0,2020/02/04 10:55:18+00,,Closed,,20-00044401,Standard,1736 RHODE ISLAND AVENUE NE,401765.37,139984.29,38.92773479,-76.97964056,WASHINGTON,DC,20018,56748,5,
-77.08230596,38.94992434,40359,SPSTDAMA,Traffic Safety Investigation,Department of Transportation,DDOT,1,2020/02/03 07:19:38+00,2020/02/05 14:15:09+00,2020/08/07 08:19:38+00,2020/02/03 07:19:38+00,0,2020/02/05 14:15:08+00,,Closed,,20-00044034,Standard,4202 RIVER ROAD NW,392865.66,142449.68,38.94991688,-77.08230365,WASHINGTON,DC,20016,266131,3,
-77.00802423,38.95784843,40377,SPSTDAMA,Traffic Safety Investigation,Department of Transportation,DDOT,1,2020/02/03 08:05:25+00,2020/02/04 11:00:08+00,2020/08/07 09:05:25+00,2020/02/03 08:05:25+00,0,2020/02/04 11:00:06+00,,Closed,,20-00044078,Standard,5601 NEW HAMPSHIRE AVENUE NE,399304.71,143326.14,38.95784096,-77.00802194,WASHINGTON,DC,20011,7516,4,
-76.95560702,38.86435729,40638,SPSTDAMA,Traffic Safety Investigation,Department of Transportation,DDOT,1,2020/02/03 14:14:36+00,2020/02/04 09:40:19+00,2020/08/07 15:14:36+00,2020/02/03 14:14:36+00,0,2020/02/04 09:40:17+00,,Closed,,20-00044890,Standard,3600 ALABAMA AVENUE SE,403852.94,132948.76,38.86434984,-76.95560475,WASHINGTON,DC,20020,278406,7,
-76.95566876,38.87476959,40641,SPSTDAMA,Traffic Safety Investigation,Department of Transportation,DDOT,1,2020/02/03 11:41:12+00,1970/01/01 00:00:00+00,2020/08/07 12:41:12+00,2020/02/03 11:41:12+00,,1970/01/01 00:00:00+00,,In-Progress,,20-00044567,Standard,3440 N STREET SE,403847.02,134104.6,38.87476214,-76.95566649,WASHINGTON,DC,20019,34532,7,
-77.00333369,38.90226585,40780,SPSTDAMA,Traffic Safety Investigation,Department of Transportation,DDOT,1,2020/02/03 15:24:26+00,2020/02/04 09:50:11+00,2020/08/07 16:24:26+00,2020/02/03 15:24:26+00,0,2020/02/04 09:50:10+00,,Closed,,20-00045038,Standard,929 2ND STREET NE,399711.03,137155.97,38.9022584,-77.00333141,WASHINGTON,DC,20002,82748,6,
-77.08069673,38.95152344,41000,SPSTDAMA,Traffic Safety Investigation,Department of Transportation,DDOT,1,2020/02/03 14:48:47+00,2020/03/05 15:10:07+00,2020/08/07 15:48:47+00,2020/02/03 14:48:47+00,0,2020/03/05 15:10:06+00,,Closed,,20-00044975,Standard,4719 WISCONSIN AVENUE NW,393005.31,142627.07,38.95151598,-77.08069442,WASHINGTON,DC,20016,300798,3,
-76.99430792,38.90302183,41091,SPSTDAMA,Traffic Safety Investigation,Department of Transportation,DDOT,1,2020/02/03 16:32:51+00,2020/02/04 10:35:06+00,2020/08/07 17:32:51+00,2020/02/03 16:32:51+00,0,2020/02/04 10:35:05+00,,Closed,,20-00045160,Standard,817 WEST VIRGINIA AVENUE NE,400493.93,137239.9,38.90301438,-76.99430564,WASHINGTON,DC,20002,80479,6,
-77.01515715,38.89981942,41341,SPSTDAMA,Traffic Safety Investigation,Department of Transportation,DDOT,1,2020/02/03 17:58:00+00,2020/02/04 09:40:11+00,2020/08/07 18:58:00+00,2020/02/03 17:58:00+00,0,2020/02/04 09:40:10+00,,Closed,,20-00045301,Standard,3RD STREET NW AND MASSACHUSETTS AVENUE NW,398685.4055,136884.5007,38.89981164,-77.01515486,WASHINGTON,DC,20001,900045,NULL,
-77.01591034,38.9085819,41352,SPSTDAMA,Traffic Safety Investigation,Department of Transportation,DDOT,1,2020/02/03 18:08:48+00,2020/02/04 09:35:26+00,2020/08/07 19:08:48+00,2020/02/03 18:08:48+00,0,2020/02/04 09:35:24+00,,Closed,,20-00045312,Standard,O STREET NW AND NEW JERSEY AVENUE NW,398620.24,137857.217,38.90857411,-77.01590805,WASHINGTON,DC,20001,900783,NULL,
-76.98906574,38.9201347,41396,SPSTDAMA,Traffic Safety Investigation,Department of Transportation,DDOT,1,2020/02/03 19:17:17+00,2020/02/04 10:55:16+00,2020/08/07 20:17:17+00,2020/02/03 19:17:17+00,0,2020/02/04 10:55:14+00,,Closed,,20-00045376,Standard,BRENTWOOD SQUARE CENTER,400948.41,139139.61,38.92012724,-76.98906346,WASHINGTON,DC,20018,310115,5,
-76.99943297,38.90671402,41568,SPSTDAMA,Traffic Safety Investigation,Department of Transportation,DDOT,1,2020/02/04 09:17:21+00,2020/03/16 15:56:07+00,2020/08/10 10:17:21+00,2020/02/04 09:17:21+00,0,2020/03/16 15:56:06+00,,Closed,,20-00045785,Standard,5TH STREET NE AND FLORIDA AVENUE NE,400049.38,137649.747,38.90670623,-76.99943068,WASHINGTON,DC,20002,904082,NULL,
-77.01081905,38.92110445,41637,SPSTDAMA,Traffic Safety Investigation,Department of Transportation,DDOT,1,2020/02/04 06:08:52+00,2020/02/05 10:05:56+00,2020/08/10 07:08:52+00,2020/02/04 06:08:52+00,0,2020/02/05 10:05:55+00,,Closed,,20-00045596,Standard,42 BRYANT STREET NW,399061.99,139247.26,38.921097,-77.01081676,WASHINGTON,DC,20001,228116,5,
-76.99100077,38.93254514,41671,SPSTDAMA,Traffic Safety Investigation,Department of Transportation,DDOT,1,2020/02/04 07:56:57+00,2020/02/18 09:15:10+00,2020/08/10 08:56:57+00,2020/02/04 07:56:57+00,0,2020/02/18 09:15:09+00,,Closed,,20-00045655,Standard,12TH STREET NE AND MONROE STREET NE,400780.47,140517.257,38.93253735,-76.99099849,WASHINGTON,DC,20017,904879,5,
-76.96293833,38.87736273,41687,SPSTDAMA,Traffic Safety Investigation,Department of Transportation,DDOT,1,2020/02/04 08:18:54+00,2020/03/16 16:00:12+00,2020/08/10 09:18:54+00,2020/02/04 08:18:54+00,0,2020/03/16 16:00:10+00,,Closed,,20-00045684,Standard,31ST STREET SE AND MINNESOTA AVENUE SE,403216.09,134392.177,38.87735495,-76.96293606,WASHINGTON,DC,20019,905865,7,
-76.96293833,38.87736273,41697,SPSTDAMA,Traffic Safety Investigation,Department of Transportation,DDOT,1,2020/02/04 08:27:26+00,2020/02/25 08:55:07+00,2020/08/10 09:27:26+00,2020/02/04 08:27:26+00,0,2020/02/25 08:55:06+00,,Closed,,20-00045696,Standard,31ST STREET SE AND MINNESOTA AVENUE SE,403216.09,134392.177,38.87735495,-76.96293606,WASHINGTON,DC,20019,905865,7,
-76.9358449,38.89022434,42019,SPSTDAMA,Traffic Safety Investigation,Department of Transportation,DDOT,1,2020/02/04 11:53:50+00,2020/03/06 09:30:12+00,2020/08/10 12:53:50+00,2020/02/04 11:53:50+00,0,2020/03/06 09:30:11+00,,Closed,,20-00046128,Standard,46TH PLACE NE AND CENTRAL AVENUE NE,405566.02,135821.217,38.89021655,-76.93584264,WASHINGTON,DC,20019,907374,7,
-76.93589119,38.88951363,42184,SPSTDAMA,Traffic Safety Investigation,Department of Transportation,DDOT,1,2020/02/04 15:47:56+00,2020/03/06 09:30:15+00,2020/08/10 16:47:56+00,2020/02/04 15:47:56+00,0,2020/03/06 09:30:14+00,,Closed,,20-00046609,Standard,4601 EAST CAPITOL STREET SE,405562.06,135742.32,38.88950618,-76.93588893,WASHINGTON,DC,20019,19520,7,
-76.99153915,38.87809134,42477,SPSTDAMA,Traffic Safety Investigation,Department of Transportation,DDOT,1,2020/02/05 05:01:11+00,2020/02/10 09:55:24+00,2020/08/11 06:01:11+00,2020/02/05 05:01:11+00,0,2020/02/10 09:55:22+00,,Closed,,20-00047026,Standard,11TH STREET SE AND SOUTHEAST BOULEVARD SE,400734.3501,134472.4388,38.87808355,-76.99153687,WASHINGTON,DC,20003,914193,6,
-76.96576928,38.85056259,42504,SPSTDAMA,Traffic Safety Investigation,Department of Transportation,DDOT,1,2020/02/05 08:39:25+00,2020/02/11 10:30:06+00,2020/08/11 09:39:25+00,2020/02/05 08:39:25+00,0,2020/02/11 10:30:05+00,,Closed,,20-00047187,Standard,3145 BUENA VISTA TERRACE SE,402971.56,131417.07,38.85055515,-76.96576701,WASHINGTON,DC,20020,39563,8,
-76.978339,38.88355576,42520,SPSTDAMA,Traffic Safety Investigation,Department of Transportation,DDOT,1,2020/02/05 09:04:45+00,1970/01/01 00:00:00+00,2020/08/11 10:04:45+00,2020/02/05 09:04:45+00,,1970/01/01 00:00:00+00,,In-Progress,,20-00047236,Standard,1818 POTOMAC AVENUE SE,401879.59,135079.22,38.8835483,-76.97833672,WASHINGTON,DC,20003,55418,6,
-76.99681432,38.82539772,42559,SPSTDAMA,Traffic Safety Investigation,Department of Transportation,DDOT,1,2020/02/05 09:55:26+00,2020/02/05 10:20:07+00,2020/08/11 10:55:26+00,2020/02/05 09:55:26+00,0,2020/02/05 10:20:06+00,,Closed,,20-00047359,Standard,700 - 799 BLOCK OF BONINI ROAD SE,400276.8249,128623.0458,38.82538995,-76.99681204,WASHINGTON,DC,20032,803694,8,
-76.9604345,38.87549846,42834,SPSTDAMA,Traffic Safety Investigation,Department of Transportation,DDOT,1,2020/02/05 10:09:46+00,1970/01/01 00:00:00+00,2020/08/11 11:09:46+00,2020/02/05 10:09:46+00,,1970/01/01 00:00:00+00,,In-Progress,,20-00047389,Standard,3211 M STREET SE,403433.44,134185.32,38.87549101,-76.96043223,WASHINGTON,DC,20019,38497,7,
-76.95169871,38.92360867,42845,SPSTDAMA,Traffic Safety Investigation,Department of Transportation,DDOT,1,2020/02/05 10:13:59+00,2020/02/10 10:00:18+00,2020/08/11 11:13:59+00,2020/02/05 10:13:59+00,0,2020/02/10 10:00:14+00,,Closed,,20-00047395,Standard,HURSTON LANE NE AND COMMODORE JOSHUA BARNEY DRIVE NE,404188.6514,139526.3016,38.92360088,-76.95169644,WASHINGTON,DC,20018,913802,5,
-77.00718357,38.87624372,43474,SPSTDAMA,Traffic Safety Investigation,Department of Transportation,DDOT,1,2020/02/05 15:38:47+00,2020/02/10 09:55:12+00,2020/08/11 16:38:47+00,2020/02/05 15:38:47+00,0,2020/02/10 09:55:10+00,,Closed,,20-00048123,Standard,1200 HALF STREET SE,399376.86,134267.33,38.87623594,-77.00718129,WASHINGTON,DC,20003,316357,6,
-77.00718357,38.87624372,43515,SPSTDAMA,Traffic Safety Investigation,Department of Transportation,DDOT,1,2020/02/05 16:44:11+00,2020/02/10 09:55:08+00,2020/08/11 17:44:11+00,2020/02/05 16:44:11+00,0,2020/02/10 09:55:06+00,,Closed,,20-00048244,Standard,1200 HALF STREET SE,399376.86,134267.33,38.87623594,-77.00718129,WASHINGTON,DC,20003,316357,6,
-77.03135517,38.89501014,43740,SPSTDAMA,Traffic Safety Investigation,Department of Transportation,DDOT,1,2020/02/06 10:44:29+00,2020/02/10 14:41:10+00,2020/08/12 11:44:29+00,2020/02/06 10:44:29+00,0,2020/02/10 14:41:09+00,,Closed,,20-00048995,Standard,1350 PENNSYLVANIA AVENUE NW,397280.14,136350.99,38.89500269,-77.03135287,WASHINGTON,DC,20004,293203,2,
-77.00718357,38.87624372,43809,SPSTDAMA,Traffic Safety Investigation,Department of Transportation,DDOT,1,2020/02/06 12:48:37+00,2020/02/11 09:20:11+00,2020/08/12 13:48:37+00,2020/02/06 12:48:37+00,0,2020/02/11 09:20:10+00,,Closed,,20-00049206,Standard,1200 HALF STREET SE,399376.86,134267.33,38.87623594,-77.00718129,WASHINGTON,DC,20003,316357,6,
-77.01065167,38.87753433,44378,SPSTDAMA,Traffic Safety Investigation,Department of Transportation,DDOT,1,2020/02/06 15:51:50+00,2020/02/12 10:15:27+00,2020/08/12 16:51:50+00,2020/02/06 15:51:50+00,0,2020/03/19 09:35:07+00,,Closed,,20-00049607,Standard,HALF STREET SW AND L STREET SW,399075.94,134410.627,38.87752655,-77.01064939,WASHINGTON,DC,20024,905354,6,
-76.9961811,38.88378097,44387,SPSTDAMA,Traffic Safety Investigation,Department of Transportation,DDOT,1,2020/02/06 15:58:12+00,2020/03/19 11:15:27+00,2020/08/12 16:58:12+00,2020/02/06 15:58:12+00,0,2020/03/19 11:15:26+00,,Closed,,20-00049621,Standard,7TH STREET SE AND D STREET SE,400331.5398,135104.0047,38.88377319,-76.99617881,WASHINGTON,DC,20003,902395,6,
-77.01022613,38.82248591,44579,SPSTDAMA,Traffic Safety Investigation,Department of Transportation,DDOT,1,2020/02/06 15:09:27+00,2020/02/20 08:30:15+00,2020/08/12 16:09:27+00,2020/02/06 15:09:27+00,0,2020/02/20 08:30:14+00,,Closed,,20-00049530,Standard,4660 MARTIN LUTHER KING JR AVENUE SW,399112.18,128299.86,38.82247814,-77.01022385,WASHINGTON,DC,20032,18525,8,
-77.00631594,38.90666793,44662,SPSTDAMA,Traffic Safety Investigation,Department of Transportation,DDOT,1,2020/02/06 18:29:23+00,2020/03/19 15:50:39+00,2020/08/12 19:29:23+00,2020/02/06 18:29:23+00,0,2020/03/19 15:50:38+00,,Closed,,20-00049785,Standard,1222 1ST STREET NE,399452.38,137644.65,38.90666014,-77.00631366,WASHINGTON,DC,20002,70970,6,
-77.05367231,38.90344141,44825,SPSTDAMA,Traffic Safety Investigation,Department of Transportation,DDOT,1,2020/02/06 21:12:59+00,2020/05/27 18:50:05+00,2020/08/12 22:12:59+00,2020/02/06 21:12:59+00,0,2020/05/27 18:50:04+00,,Closed,,20-00049852,Standard,2500 PENNSYLVANIA AVENUE NW,395344.68,137287.83,38.90343396,-77.05367001,WASHINGTON,DC,20037,273885,2,
-77.04629552,38.90164902,44827,SPSTDAMA,Traffic Safety Investigation,Department of Transportation,DDOT,1,2020/02/06 21:19:15+00,2020/05/27 19:30:04+00,2020/08/12 22:19:15+00,2020/02/06 21:19:15+00,0,2020/05/27 19:30:03+00,,Closed,,20-00049854,Standard,2099 PENNSYLVANIA AVENUE NW,395984.44,137088.51,38.90164157,-77.04629322,WASHINGTON,DC,20006,242837,2,
-77.0239747,38.8948044,45796,SPSTDAMA,Traffic Safety Investigation,Department of Transportation,DDOT,1,2020/02/07 08:57:12+00,2020/05/27 15:25:04+00,2020/08/13 09:57:12+00,2020/02/07 08:57:12+00,0,2020/05/27 15:25:03+00,,Closed,,20-00050024,Standard,D STREET NW AND 9TH STREET NW,397920.389,136327.9572,38.89479661,-77.02397241,WASHINGTON,DC,20004,910898,2,
-77.06877624,38.90522129,46256,SPSTDAMA,Traffic Safety Investigation,Department of Transportation,DDOT,1,2020/02/07 11:39:35+00,1970/01/01 00:00:00+00,2020/08/13 12:39:35+00,2020/02/07 11:39:35+00,,1970/01/01 00:00:00+00,,In-Progress,,20-00050299,Standard,3429 M STREET NW,394034.72,137486.29,38.90521384,-77.06877393,WASHINGTON,DC,20007,274568,2,
-77.0018397,38.87987269,46260,SPSTDAMA,Traffic Safety Investigation,Department of Transportation,DDOT,1,2020/02/07 10:09:09+00,1970/01/01 00:00:00+00,2020/08/13 11:09:09+00,2020/02/07 10:09:09+00,,1970/01/01 00:00:00+00,,In-Progress,,20-00050146,Standard,800 3RD STREET SE,399840.57,134670.15,38.87986524,-77.00183742,WASHINGTON,DC,20003,306062,6,
-77.01765426,38.90252846,46413,SPSTDAMA,Traffic Safety Investigation,Department of Transportation,DDOT,1,2020/02/07 13:10:38+00,2020/03/17 14:35:35+00,2020/08/13 14:10:38+00,2020/02/07 13:10:38+00,0,2020/03/17 14:35:34+00,,Closed,,20-00050432,Standard,K STREET NW AND 4 1/2 STREET NW,398468.8541,137185.2644,38.90252067,-77.01765197,WASHINGTON,DC,20001,914027,6,
-76.99844436,38.90021259,47279,SPSTDAMA,Traffic Safety Investigation,Department of Transportation,DDOT,1,2020/02/08 22:22:37+00,2020/03/20 17:05:07+00,2020/08/13 23:22:36+00,2020/02/08 22:22:37+00,0,2020/03/20 17:05:06+00,,Closed,,20-00051566,Standard,H STREET NE AND 6TH STREET NE,400135.14,136928.037,38.9002048,-76.99844208,WASHINGTON,DC,20002,904421,6,
-77.01818694,38.91388759,48703,SPSTDAMA,Traffic Safety Investigation,Department of Transportation,DDOT,1,2020/02/10 09:32:18+00,2020/03/13 10:55:06+00,2020/08/14 10:32:18+00,2020/02/10 09:32:18+00,0,2020/03/13 10:55:05+00,,Closed,,20-00052204,Standard,1740 NEW JERSEY AVENUE NW,398422.9,138446.23,38.91388014,-77.01818465,WASHINGTON,DC,20001,237243,6,
-76.99433252,38.84155759,48728,SPSTDAMA,Traffic Safety Investigation,Department of Transportation,DDOT,1,2020/02/10 10:04:26+00,2020/03/21 04:20:08+00,2020/08/14 11:04:25+00,2020/02/10 10:04:26+00,0,2020/03/21 04:20:07+00,,Closed,,20-00052258,Standard,3301 WHEELER ROAD SE,400492.22,130416.91,38.84154981,-76.99433024,WASHINGTON,DC,20032,294563,8,
-76.9656904,38.85241377,48754,SPSTDAMA,Traffic Safety Investigation,Department of Transportation,DDOT,1,2020/02/10 10:29:16+00,1970/01/01 00:00:00+00,2020/08/14 11:29:16+00,2020/02/10 10:29:16+00,,1970/01/01 00:00:00+00,,In-Progress,,20-00052312,Standard,BUENA VISTA TERRACE SE AND 30TH STREET SE,402978.33,131622.567,38.85240599,-76.96568813,WASHINGTON,DC,20020,907429,8,
-77.07256974,38.92639823,48804,SPSTDAMA,Traffic Safety Investigation,Department of Transportation,DDOT,1,2020/02/10 12:36:07+00,1970/01/01 00:00:00+00,2020/08/14 13:36:07+00,2020/02/10 12:36:07+00,,1970/01/01 00:00:00+00,,In-Progress,,20-00052571,Standard,3633 FULTON STREET NW,393707.55,139837.36,38.92639078,-77.07256743,WASHINGTON,DC,20007,262642,3,
-77.0425723,38.98797296,48832,SPSTDAMA,Traffic Safety Investigation,Department of Transportation,DDOT,1,2020/02/10 13:19:15+00,1970/01/01 00:00:00+00,2020/08/14 14:19:14+00,2020/02/10 13:19:15+00,,1970/01/01 00:00:00+00,,In-Progress,,20-00052654,Standard,NORTH PORTAL DRIVE NW AND EAST BEACH DRIVE NW,396311.8679,146671.0798,38.98796516,-77.04256999,WASHINGTON,DC,20012,911140,4,
-77.01893471,38.90418213,48867,SPSTDAMA,Traffic Safety Investigation,Department of Transportation,DDOT,1,2020/02/10 14:03:56+00,1970/01/01 00:00:00+00,2020/08/14 15:03:55+00,2020/02/10 14:03:56+00,,1970/01/01 00:00:00+00,,In-Progress,,20-00052746,Standard,L STREET NW AND 5TH STREET NW,398357.8244,137368.857,38.90417434,-77.01893242,WASHINGTON,DC,20001,906434,6,
-77.00718357,38.87624372,49025,SPSTDAMA,Traffic Safety Investigation,Department of Transportation,DDOT,1,2020/02/10 11:17:08+00,2020/02/11 09:30:06+00,2020/08/14 12:17:08+00,2020/02/10 11:17:08+00,0,2020/02/11 09:30:05+00,,Closed,,20-00052414,Standard,1200 HALF STREET SE,399376.86,134267.33,38.87623594,-77.00718129,WASHINGTON,DC,20003,316357,6,
-77.03788645,38.91558082,49202,SPSTDAMA,Traffic Safety Investigation,Department of Transportation,DDOT,1,2020/02/10 14:56:56+00,2020/04/27 12:45:06+00,2020/08/14 15:56:56+00,2020/02/10 14:56:56+00,0,2020/04/27 12:45:05+00,,Closed,,20-00052853,Standard,T STREET NW AND NEW HAMPSHIRE AVENUE NW,396714.5,138634.717,38.91557303,-77.03788415,WASHINGTON,DC,20009,900529,2,
-77.10403712,38.92736679,49647,SPSTDAMA,Traffic Safety Investigation,Department of Transportation,DDOT,1,2020/02/10 20:23:31+00,2020/03/16 15:45:12+00,2020/08/14 21:23:31+00,2020/02/10 20:23:31+00,0,2020/03/16 15:45:11+00,,Closed,,20-00053163,Standard,MACARTHUR BOULEVARD NW AND ARIZONA AVENUE NW,390979.0824,139947.5173,38.927359,-77.1040348,WASHINGTON,DC,20016,903976,3,
-76.99134563,38.89059299,50231,SPSTDAMA,Traffic Safety Investigation,Department of Transportation,DDOT,1,2020/02/11 14:38:15+00,1970/01/01 00:00:00+00,2020/08/17 15:38:15+00,2020/02/11 14:38:15+00,,1970/01/01 00:00:00+00,,In-Progress,,20-00054179,Standard,1100 EAST CAPITOL STREET NE,400751.01,135860.22,38.89058554,-76.99134335,WASHINGTON,DC,20002,74596,6,
-76.99376177,38.89812792,50333,SPSTDAMA,Traffic Safety Investigation,Department of Transportation,DDOT,1,2020/02/11 14:02:15+00,1970/01/01 00:00:00+00,2020/08/17 15:02:15+00,2020/02/11 14:02:15+00,,1970/01/01 00:00:00+00,,In-Progress,,20-00054109,Standard,600 - 699 BLOCK OF 9TH STREET NE,400541.34,136696.64,38.89812014,-76.99375949,WASHINGTON,DC,20002,807296,6,
-76.99264619,38.89734248,50339,SPSTDAMA,Traffic Safety Investigation,Department of Transportation,DDOT,1,2020/02/11 14:07:15+00,1970/01/01 00:00:00+00,2020/08/17 15:07:14+00,2020/02/11 14:07:15+00,,1970/01/01 00:00:00+00,,In-Progress,,20-00054119,Standard,10TH STREET NE AND F STREET NE,400638.12,136609.457,38.89733469,-76.9926439,WASHINGTON,DC,20002,904372,6,
-77.00904925,38.95346022,50396,SPSTDAMA,Traffic Safety Investigation,Department of Transportation,DDOT,1,2020/02/11 15:39:56+00,2020/04/01 08:35:05+00,2020/08/17 16:39:56+00,2020/02/11 15:39:56+00,0,2020/04/01 08:35:04+00,,Closed,,20-00054298,Standard,NORTH CAPITOL STREET AND HAMILTON STREET NE,399215.82,142839.017,38.95345242,-77.00904696,WASHINGTON,DC,20011,904633,NULL,
-77.09702964,38.95021077,50397,SPSTDAMA,Traffic Safety Investigation,Department of Transportation,DDOT,1,2020/02/11 15:40:07+00,2020/04/06 15:30:06+00,2020/08/17 16:40:07+00,2020/02/11 15:40:07+00,0,2020/04/06 15:30:05+00,,Closed,,20-00054300,Standard,4610 49TH STREET NW,391589.4,142482.73,38.95020331,-77.09702732,WASHINGTON,DC,20016,269375,3,
-76.99562887,38.94073611,50399,SPSTDAMA,Traffic Safety Investigation,Department of Transportation,DDOT,1,2020/02/11 15:42:27+00,2020/03/25 09:20:16+00,2020/08/17 16:42:26+00,2020/02/11 15:42:27+00,0,2020/03/25 09:20:15+00,,Closed,,20-00054304,Standard,PUERTO RICO AVENUE NE AND TAYLOR STREET NE,400379.15,141426.497,38.94072832,-76.99562659,WASHINGTON,DC,20017,903473,5,
-76.98830879,38.94073138,50570,SPSTDAMA,Traffic Safety Investigation,Department of Transportation,DDOT,1,2020/02/11 15:21:30+00,2020/03/25 09:10:08+00,2020/08/17 16:21:30+00,2020/02/11 15:21:30+00,0,2020/03/25 09:10:07+00,,Closed,,20-00054265,Standard,13TH STREET NE AND TAYLOR STREET NE,401013.76,141426.027,38.94072358,-76.9883065,WASHINGTON,DC,20017,901482,5,
-77.04186228,38.91683399,50600,SPSTDAMA,Traffic Safety Investigation,Department of Transportation,DDOT,1,2020/02/11 16:21:53+00,1970/01/01 00:00:00+00,2020/08/17 17:21:53+00,2020/02/11 16:21:53+00,,1970/01/01 00:00:00+00,,In-Progress,,20-00054364,Standard,1801 FLORIDA AVENUE NW,396369.76,138773.98,38.91682654,-77.04185998,WASHINGTON,DC,20009,304991,1,
-76.99433252,38.84155759,51884,SPSTDAMA,Traffic Safety Investigation,Department of Transportation,DDOT,1,2020/02/12 16:28:44+00,2020/02/20 08:30:12+00,2020/08/18 17:28:44+00,2020/02/12 16:28:44+00,0,2020/02/20 08:30:11+00,,Closed,,20-00055871,Standard,3301 WHEELER ROAD SE,400492.22,130416.91,38.84154981,-76.99433024,WASHINGTON,DC,20032,294563,8,
-76.95775814,38.930757,52330,SPSTDAMA,Traffic Safety Investigation,Department of Transportation,DDOT,1,2020/02/13 10:05:19+00,2020/03/25 09:30:06+00,2020/08/19 11:05:19+00,2020/02/13 10:05:19+00,0,2020/03/25 09:30:05+00,,Closed,,20-00056321,Standard,BLADENSBURG ROAD NE AND EASTERN AVENUE NE,403662.84,140319.567,38.93074921,-76.95775586,WASHINGTON,DC,20018,901614,5,
-76.98392664,38.86841444,52556,SPSTDAMA,Traffic Safety Investigation,Department of Transportation,DDOT,1,2020/02/13 06:29:24+00,2020/05/01 14:05:07+00,2020/08/19 07:29:23+00,2020/02/13 06:29:24+00,0,2020/05/01 14:05:06+00,,Closed,,20-00056089,Standard,1430 S STREET SE,401395.08,133398.32,38.86840699,-76.98392437,WASHINGTON,DC,20020,63596,8,
-76.99046517,38.89875712,52602,SPSTDAMA,Traffic Safety Investigation,Department of Transportation,DDOT,1,2020/02/13 08:48:46+00,2020/02/19 16:05:08+00,2020/08/19 09:48:46+00,2020/02/13 08:48:46+00,0,2020/02/19 16:05:06+00,,Closed,,20-00056191,Standard,660 12TH STREET NE,400827.3,136766.51,38.89874966,-76.99046289,WASHINGTON,DC,20002,1238,6,
-77.01743383,38.94854499,52790,SPSTDAMA,Traffic Safety Investigation,Department of Transportation,DDOT,1,2020/02/13 14:02:00+00,1970/01/01 00:00:00+00,2020/08/19 15:01:59+00,2020/02/13 14:02:00+00,,1970/01/01 00:00:00+00,,In-Progress,,20-00056789,Standard,4TH STREET NW AND DECATUR STREET NW,398488.95,142293.487,38.94853719,-77.01743154,WASHINGTON,DC,20011,903291,4,
-77.00554142,38.87720645,52858,SPSTDAMA,Traffic Safety Investigation,Department of Transportation,DDOT,1,2020/02/13 14:29:42+00,2020/03/20 17:30:06+00,2020/08/19 15:29:41+00,2020/02/13 14:29:42+00,0,2020/03/20 17:30:05+00,,Closed,,20-00056841,Standard,1100 1ST STREET SE,399519.36,134374.19,38.877199,-77.00553914,WASHINGTON,DC,20003,74573,6,
-77.03654082,38.90374712,53230,SPSTDAMA,Traffic Safety Investigation,Department of Transportation,DDOT,1,2020/02/13 17:16:10+00,1970/01/01 00:00:00+00,2020/08/19 18:16:10+00,2020/02/13 17:16:10+00,,1970/01/01 00:00:00+00,,In-Progress,,20-00057136,Standard,16TH STREET NW AND L STREET NW,396830.6736,137321.032,38.90373933,-77.03653852,WASHINGTON,DC,20036,906897,2,
-76.99176524,38.89128378,53245,SPSTDAMA,Traffic Safety Investigation,Department of Transportation,DDOT,1,2020/02/13 17:21:24+00,2020/03/20 22:25:07+00,2020/08/19 18:21:24+00,2020/02/13 17:21:24+00,0,2020/03/20 22:25:06+00,,Closed,,20-00057144,Standard,130 11TH STREET NE,400714.6,135936.9,38.891276,-76.99176296,WASHINGTON,DC,20002,68925,6,
-76.99183435,38.89277206,53251,SPSTDAMA,Traffic Safety Investigation,Department of Transportation,DDOT,1,2020/02/13 17:25:02+00,2020/03/24 13:05:17+00,2020/08/19 18:25:02+00,2020/02/13 17:25:02+00,0,2020/03/24 13:05:16+00,,Closed,,20-00057151,Standard,224 11TH STREET NE,400708.59,136102.11,38.89276461,-76.99183207,WASHINGTON,DC,20002,49518,6,
-77.06830186,38.97304828,54131,SPSTDAMA,Traffic Safety Investigation,Department of Transportation,DDOT,1,2020/02/14 11:10:51+00,2020/05/08 11:25:04+00,2020/08/20 12:10:51+00,2020/02/14 11:10:51+00,0,2020/05/08 11:25:03+00,,Closed,,20-00057878,Standard,3339 TENNYSON STREET NW,394081.5,145015.65,38.97304082,-77.06829955,WASHINGTON,DC,20015,261871,4,
-76.98548975,38.86900416,54300,SPSTDAMA,Traffic Safety Investigation,Department of Transportation,DDOT,1,2020/02/14 13:59:55+00,2020/07/07 13:20:45+00,2020/08/20 14:59:55+00,2020/02/14 13:59:55+00,0,2020/07/07 13:20:44+00,,Closed,,20-00058232,Standard,1336 RIDGE PLACE SE,401259.42,133463.76,38.86899671,-76.98548747,WASHINGTON,DC,20020,66839,8,
-76.99313743,38.90400843,54306,SPSTDAMA,Traffic Safety Investigation,Department of Transportation,DDOT,1,2020/02/14 14:03:14+00,2020/04/03 15:00:06+00,2020/08/20 15:03:14+00,2020/02/14 14:03:14+00,0,2020/04/03 15:00:05+00,,Closed,,20-00058239,Standard,WEST VIRGINIA AVENUE NE AND FLORIDA AVENUE NE,400595.45,137349.427,38.90400064,-76.99313515,WASHINGTON,DC,20002,903578,NULL,
-77.00675314,38.9164198,54323,SPSTDAMA,Traffic Safety Investigation,Department of Transportation,DDOT,1,2020/02/14 14:56:07+00,2020/06/09 13:30:14+00,2020/08/20 15:56:07+00,2020/02/14 14:56:07+00,0,2020/06/09 13:30:13+00,,Closed,,20-00058336,Standard,1920 1ST STREET NE,399414.54,138727.19,38.91641234,-77.00675085,WASHINGTON,DC,20002,53940,5,
-77.03981123,38.94896851,54329,SPSTDAMA,Traffic Safety Investigation,Department of Transportation,DDOT,1,2020/02/14 15:06:57+00,1970/01/01 00:00:00+00,2020/08/20 16:06:57+00,2020/02/14 15:06:57+00,,1970/01/01 00:00:00+00,,In-Progress,,20-00058347,Standard,4808 17TH STREET NW,396549.19,142341.11,38.94896105,-77.03980893,WASHINGTON,DC,20011,258785,4,
-77.00802661,38.90625362,54456,SPSTDAMA,Traffic Safety Investigation,Department of Transportation,DDOT,1,2020/02/14 12:10:34+00,2020/03/17 15:30:18+00,2020/08/20 13:10:34+00,2020/02/14 12:10:34+00,0,2020/03/17 15:30:17+00,,Closed,,20-00058016,Standard,33 PATTERSON STREET NE,399304,137598.67,38.90624617,-77.00802432,WASHINGTON,DC,20002,37072,6,
-77.08376381,38.96102751,54669,SPSTDAMA,Traffic Safety Investigation,Department of Transportation,DDOT,1,2020/02/14 21:40:56+00,2020/02/24 09:30:04+00,2020/08/19 22:40:56+00,2020/02/14 21:40:56+00,0,2020/02/24 09:30:03+00,,Closed,,20-00058668,Standard,43RD STREET NW AND MILITARY ROAD NW,392740.42,143682.347,38.96101971,-77.0837615,WASHINGTON,DC,20015,902523,3,
-77.06262299,38.90499901,54827,SPSTDAMA,Traffic Safety Investigation,Department of Transportation,DDOT,1,2020/02/14 22:09:06+00,1970/01/01 00:00:00+00,2020/08/20 23:09:06+00,2020/02/14 22:09:06+00,,1970/01/01 00:00:00+00,,In-Progress,,20-00058675,Standard,3150 M STREET NW,394568.42,137461.23,38.90499155,-77.06262069,WASHINGTON,DC,20007,279671,2,
-77.03454759,38.91410026,54855,SPSTDAMA,Traffic Safety Investigation,Department of Transportation,DDOT,1,2020/02/15 09:15:17+00,2020/03/16 15:35:07+00,2020/08/20 10:15:17+00,2020/02/15 09:15:17+00,0,2020/03/16 15:35:06+00,,Closed,,20-00058805,Standard,15TH STREET NW AND S STREET NW,397004,138470.247,38.91409247,-77.03454529,WASHINGTON,DC,20009,904907,2,
-77.00948952,38.90512756,54869,SPSTDAMA,Traffic Safety Investigation,Department of Transportation,DDOT,1,2020/02/15 10:36:59+00,2020/05/07 17:30:06+00,2020/08/20 11:36:58+00,2020/02/15 10:36:59+00,0,2020/05/07 17:30:04+00,,Closed,,20-00058858,Standard,1140 NORTH CAPITOL STREET NW,399177.1,137473.68,38.9051201,-77.00948723,WASHINGTON,DC,20002,285576,6,
-76.98999262,38.89969908,54883,SPSTDAMA,Traffic Safety Investigation,Department of Transportation,DDOT,1,2020/02/15 11:06:19+00,2020/03/25 23:45:06+00,2020/08/20 12:06:18+00,2020/02/15 11:06:19+00,0,2020/03/25 23:45:05+00,,Closed,,20-00058896,Standard,723 12TH STREET NE,400868.28,136871.08,38.89969163,-76.98999034,WASHINGTON,DC,20002,77846,6,
-76.98690852,38.90020649,55018,SPSTDAMA,Traffic Safety Investigation,Department of Transportation,DDOT,1,2020/02/15 18:08:34+00,2020/03/17 14:40:15+00,2020/08/20 19:08:34+00,2020/02/15 18:08:34+00,0,2020/03/17 14:40:14+00,,Closed,,20-00059191,Standard,1300 - 1399 BLOCK OF H STREET NE,401135.8,136927.44,38.9001987,-76.98690624,WASHINGTON,DC,20002,811672,6,
-76.98621753,38.93357732,56440,SPSTDAMA,Traffic Safety Investigation,Department of Transportation,DDOT,1,2020/02/17 15:14:24+00,2020/03/25 09:40:19+00,2020/08/20 16:14:24+00,2020/02/17 15:14:24+00,0,2020/03/25 09:40:18+00,,Closed,,20-00060006,Standard,1401 NEWTON STREET NE,401195.18,140631.89,38.93356986,-76.98621525,WASHINGTON,DC,20017,65123,5,
-76.98629046,38.93455906,56746,SPSTDAMA,Traffic Safety Investigation,Department of Transportation,DDOT,1,2020/02/17 15:22:08+00,2020/05/01 13:40:13+00,2020/08/20 16:22:08+00,2020/02/17 15:22:08+00,0,2020/05/01 13:40:12+00,,Closed,,20-00060010,Standard,1401 OTIS STREET NE,401188.84,140740.87,38.9345516,-76.98628818,WASHINGTON,DC,20017,65126,5,
-77.03195412,38.91865635,57602,SPSTDAMA,Traffic Safety Investigation,Department of Transportation,DDOT,1,2020/02/18 09:09:54+00,1970/01/01 00:00:00+00,2020/08/21 10:09:53+00,2020/02/18 09:09:54+00,,1970/01/01 00:00:00+00,,In-Progress,,20-00060628,Standard,2100 - 2199 BLOCK OF 14TH STREET NW,397229.1,138975.93,38.91864856,-77.03195182,WASHINGTON,DC,20009,813563,1,
-76.94784288,38.88307687,58095,SPSTDAMA,Traffic Safety Investigation,Department of Transportation,DDOT,1,2020/02/18 11:24:43+00,2020/05/04 20:25:05+00,2020/08/21 12:24:43+00,2020/02/18 11:24:43+00,0,2020/05/04 20:25:04+00,,Closed,,20-00061022,Standard,3742 ELY PLACE SE,404525.58,135027.13,38.88306942,-76.94784062,WASHINGTON,DC,20019,310211,7,
-76.95594597,38.88626116,58430,SPSTDAMA,Traffic Safety Investigation,Department of Transportation,DDOT,1,2020/02/18 14:01:30+00,1970/01/01 00:00:00+00,2020/08/21 15:01:30+00,2020/02/18 14:01:30+00,,1970/01/01 00:00:00+00,,In-Progress,,20-00061541,Standard,3500 MINNESOTA AVENUE SE,403822.35,135380.24,38.88625371,-76.9559437,WASHINGTON,DC,20019,150716,7,
-77.02472935,38.91465679,58460,SPSTDAMA,Traffic Safety Investigation,Department of Transportation,DDOT,1,2020/02/18 14:49:39+00,1970/01/01 00:00:00+00,2020/08/21 15:49:39+00,2020/02/18 14:49:39+00,,1970/01/01 00:00:00+00,,In-Progress,,20-00061683,Standard,918 WESTMINSTER STREET NW,397855.52,138531.75,38.91464933,-77.02472706,WASHINGTON,DC,20001,239601,1,
-76.99024485,38.89891508,58482,SPSTDAMA,Traffic Safety Investigation,Department of Transportation,DDOT,1,2020/02/18 15:11:21+00,2020/08/05 15:50:25+00,2020/08/21 16:11:21+00,2020/02/18 15:11:21+00,0,2020/08/05 15:50:24+00,,Closed,,20-00061741,Standard,G STREET NE AND 12TH STREET NE,400846.41,136784.047,38.89890729,-76.99024257,WASHINGTON,DC,20002,906620,6,
-77.00276979,38.88944084,58507,SPSTDAMA,Traffic Safety Investigation,Department of Transportation,DDOT,1,2020/02/18 15:37:47+00,2020/02/19 10:00:21+00,2020/08/21 16:37:47+00,2020/02/18 15:37:47+00,0,2020/02/19 10:00:20+00,,Closed,,20-00061787,Standard,201 EAST CAPITOL STREET SE,399759.9,135732.29,38.88943338,-77.00276751,WASHINGTON,DC,20003,278034,6,
-76.97319003,38.86983147,58620,SPSTDAMA,Traffic Safety Investigation,Department of Transportation,DDOT,1,2020/02/18 17:28:27+00,2020/04/01 07:15:11+00,2020/08/21 18:28:27+00,2020/02/18 17:28:27+00,0,2020/04/01 07:15:10+00,,Closed,,20-00061981,Standard,1605 - 1699 BLOCK OF 23RD STREET SE,402326.7816,133555.8395,38.86982369,-76.97318775,WASHINGTON,DC,20020,805345,8,
-77.03895584,38.91205752,58663,SPSTDAMA,Traffic Safety Investigation,Department of Transportation,DDOT,1,2020/02/18 20:37:50+00,2020/05/28 18:25:05+00,2020/08/23 21:37:50+00,2020/02/18 20:37:50+00,0,2020/05/28 18:25:04+00,,Closed,,20-00062147,Standard,1701 CORCORAN STREET NW,396621.59,138243.64,38.91205006,-77.03895354,WASHINGTON,DC,20009,241699,2,
-76.96834073,38.87466685,58679,SPSTDAMA,Traffic Safety Investigation,Department of Transportation,DDOT,1,2020/02/18 21:56:02+00,2020/07/08 13:50:17+00,2020/08/21 22:56:02+00,2020/02/18 21:56:02+00,0,2020/07/08 13:50:16+00,,Closed,,20-00062200,Standard,MINNESOTA AVENUE SE AND N STREET SE,402747.42,134092.737,38.87465906,-76.96833846,WASHINGTON,DC,20019,902101,7,
-77.03172051,38.91687385,59133,SPSTDAMA,Traffic Safety Investigation,Department of Transportation,DDOT,1,2020/02/19 08:54:14+00,2020/04/22 16:05:15+00,2020/08/24 09:54:14+00,2020/02/19 08:54:14+00,0,2020/04/22 16:05:14+00,,Closed,,20-00062427,Standard,1947 14TH STREET NW,397249.29,138778.05,38.91686639,-77.03171822,WASHINGTON,DC,20009,300771,1,
-76.97128652,38.84489732,59648,SPSTDAMA,Traffic Safety Investigation,Department of Transportation,DDOT,1,2020/02/19 13:49:07+00,2020/02/25 09:31:36+00,2020/08/24 14:49:06+00,2020/02/19 13:49:07+00,0,2020/02/25 09:31:35+00,,Closed,,20-00063094,Standard,2248 SOUTHERN AVENUE SE,402492.84,130788.02,38.84488987,-76.97128424,WASHINGTON,DC,20020,49431,8,
-77.01634599,38.90582675,59657,SPSTDAMA,Traffic Safety Investigation,Department of Transportation,DDOT,1,2020/02/19 13:52:01+00,1970/01/01 00:00:00+00,2020/08/24 14:52:01+00,2020/02/19 13:52:01+00,,1970/01/01 00:00:00+00,,In-Progress,,20-00063103,Standard,401 M STREET NW,398582.4,137551.38,38.90581929,-77.0163437,WASHINGTON,DC,20001,237465,6,
-76.99618547,38.8860493,59685,SPSTDAMA,Traffic Safety Investigation,Department of Transportation,DDOT,1,2020/02/19 14:22:00+00,1970/01/01 00:00:00+00,2020/08/24 15:22:00+00,2020/02/19 14:22:00+00,,1970/01/01 00:00:00+00,,In-Progress,,20-00063167,Standard,C STREET SE AND 7TH STREET SE,400331.15,135355.807,38.88604152,-76.99618319,WASHINGTON,DC,20003,911612,6,
-76.98202641,38.90304239,60240,SPSTDAMA,Traffic Safety Investigation,Department of Transportation,DDOT,1,2020/02/19 19:23:31+00,2020/03/25 10:05:07+00,2020/08/24 20:23:31+00,2020/02/19 19:23:31+00,0,2020/03/25 10:05:06+00,,Closed,,20-00063587,Standard,1000 BLADENSBURG ROAD NE,401559.23,137242.32,38.90303493,-76.98202413,WASHINGTON,DC,20002,76125,5,
-77.01070289,38.91318731,60435,SPSTDAMA,Traffic Safety Investigation,Department of Transportation,DDOT,1,2020/02/20 10:52:14+00,1970/01/01 00:00:00+00,2020/08/25 11:52:14+00,2020/02/20 10:52:14+00,,1970/01/01 00:00:00+00,,In-Progress,,20-00064110,Standard,50 RANDOLPH PLACE NW,399071.96,138368.39,38.91317985,-77.0107006,WASHINGTON,DC,20001,226843,5,
-76.99011444,38.90412318,61086,SPSTDAMA,Traffic Safety Investigation,Department of Transportation,DDOT,1,2020/02/20 16:15:42+00,2020/03/25 11:30:10+00,2020/08/25 17:15:42+00,2020/02/20 16:15:42+00,0,2020/03/25 11:30:09+00,,Closed,,20-00064841,Standard,1170 MORSE STREET NE,400857.66,137362.19,38.90411573,-76.99011216,WASHINGTON,DC,20002,72449,5,
-76.98214197,38.85036112,61164,SPSTDAMA,Traffic Safety Investigation,Department of Transportation,DDOT,1,2020/02/20 15:31:22+00,2020/06/25 09:25:07+00,2020/08/25 16:31:22+00,2020/02/20 15:31:22+00,0,2020/06/25 09:25:05+00,,Closed,,20-00064756,Standard,3146 15TH PLACE SE,401550.35,131394.3,38.85035368,-76.9821397,WASHINGTON,DC,20020,155440,8,
-76.97135206,38.92757734,61220,SPSTDAMA,Traffic Safety Investigation,Department of Transportation,DDOT,1,2020/02/20 16:24:29+00,2020/05/01 13:40:10+00,2020/08/25 17:24:29+00,2020/02/20 16:24:29+00,0,2020/05/01 13:40:09+00,,Closed,,20-00064862,Standard,2914 25TH STREET NE,402484.27,139966.14,38.92756988,-76.97134978,WASHINGTON,DC,20018,43302,5,
-76.97135206,38.92757734,61571,SPSTDAMA,Traffic Safety Investigation,Department of Transportation,DDOT,1,2020/02/21 09:38:44+00,1970/01/01 00:00:00+00,2020/08/26 10:38:44+00,2020/02/21 09:38:44+00,,1970/01/01 00:00:00+00,,In-Progress,,20-00065427,Standard,2914 25TH STREET NE,402484.27,139966.14,38.92756988,-76.97134978,WASHINGTON,DC,20018,43302,5,
-76.96939801,38.85705724,61800,SPSTDAMA,Traffic Safety Investigation,Department of Transportation,DDOT,1,2020/02/21 09:01:27+00,2020/02/25 10:00:06+00,2020/08/26 10:01:27+00,2020/02/21 09:01:27+00,0,2020/02/25 10:00:04+00,,Closed,,20-00065357,Standard,2513 ALABAMA AVENUE SE,402656.33,132137.91,38.85704979,-76.96939574,WASHINGTON,DC,20020,46437,8,
-77.03195303,38.91700591,61975,SPSTDAMA,Traffic Safety Investigation,Department of Transportation,DDOT,1,2020/02/21 12:12:24+00,2020/02/25 10:10:07+00,2020/08/26 13:12:24+00,2020/02/21 12:12:24+00,0,2020/02/25 10:10:06+00,,Closed,,20-00065758,Standard,U STREET NW AND 14TH STREET NW,397229.13,138792.717,38.91699812,-77.03195074,WASHINGTON,DC,20009,903573,NULL,
-77.01367432,38.87204385,62126,SPSTDAMA,Traffic Safety Investigation,Department of Transportation,DDOT,1,2020/02/21 14:05:49+00,2020/04/09 14:55:09+00,2020/08/26 15:05:48+00,2020/02/21 14:05:49+00,0,2020/04/09 14:55:08+00,,Closed,,20-00066022,Standard,P STREET SW AND 2ND STREET SW,398813.57,133801.177,38.87203606,-77.01367203,WASHINGTON,DC,20024,903703,6,
-77.03262487,38.90652184,62329,SPSTDAMA,Traffic Safety Investigation,Department of Transportation,DDOT,1,2020/02/21 18:28:42+00,2020/03/17 15:35:19+00,2020/08/26 19:28:42+00,2020/02/21 18:28:42+00,0,2020/03/17 15:35:18+00,,Closed,,20-00066441,Standard,5 THOMAS CIRCLE NW,397170.45,137628.92,38.90651406,-77.03262258,WASHINGTON,DC,20005,243014,2,
-77.01819178,38.92925408,62415,SPSTDAMA,Traffic Safety Investigation,Department of Transportation,DDOT,1,2020/02/21 16:12:59+00,1970/01/01 00:00:00+00,2020/08/26 17:12:59+00,2020/02/21 16:12:59+00,,1970/01/01 00:00:00+00,,In-Progress,,20-00066263,Standard,3026 PARK PLACE NW,398422.82,140152.04,38.92924663,-77.01818949,WASHINGTON,DC,20001,229375,1,
-76.96196723,38.85193373,64325,SPSTDAMA,Traffic Safety Investigation,Department of Transportation,DDOT,1,2020/02/22 21:24:27+00,2020/04/22 08:45:23+00,2020/08/26 22:24:27+00,2020/02/22 21:24:27+00,0,2020/04/22 08:45:22+00,,Closed,,20-00067221,Standard,SOUTHERN AVENUE SE AND NAYLOR ROAD SE,403301.53,131569.407,38.85192595,-76.96196496,WASHINGTON,DC,20020,908318,NULL,
-76.98057107,38.89359076,65074,SPSTDAMA,Traffic Safety Investigation,Department of Transportation,DDOT,1,2020/02/23 19:35:36+00,2020/03/02 11:40:11+00,2020/08/25 20:35:36+00,2020/02/23 19:35:36+00,0,2020/03/02 11:40:10+00,,Closed,,20-00067587,Standard,1702 C STREET NE,401685.69,136193.14,38.89358331,-76.98056879,WASHINGTON,DC,20002,57840,6,
-76.98057107,38.89359076,67531,SPSTDAMA,Traffic Safety Investigation,Department of Transportation,DDOT,1,2020/02/23 19:41:23+00,2020/03/02 11:45:12+00,2020/08/25 20:41:23+00,2020/02/23 19:41:23+00,0,2020/03/02 11:45:11+00,,Closed,,20-00067590,Standard,1702 C STREET NE,401685.69,136193.14,38.89358331,-76.98056879,WASHINGTON,DC,20002,57840,6,
-76.99303978,38.84027652,69104,SPSTDAMA,Traffic Safety Investigation,Department of Transportation,DDOT,1,2020/02/24 13:59:06+00,1970/01/01 00:00:00+00,2020/08/27 14:59:06+00,2020/02/24 13:59:06+00,,1970/01/01 00:00:00+00,,In-Progress,,20-00068579,Standard,3400 WHEELER ROAD SE,400604.46,130274.71,38.84026907,-76.9930375,WASHINGTON,DC,20032,294566,8,
-76.98768284,38.9418033,69218,SPSTDAMA,Traffic Safety Investigation,Department of Transportation,DDOT,1,2020/02/24 09:49:49+00,2020/05/01 13:40:07+00,2020/08/27 10:49:49+00,2020/02/24 09:49:49+00,0,2020/06/08 11:30:07+00,,Closed,,20-00068013,Standard,UPSHUR STREET NE AND SARGENT ROAD NE,401068.01,141545.027,38.9417955,-76.98768056,WASHINGTON,DC,20017,901645,5,
-76.9965325,38.9480373,69273,SPSTDAMA,Traffic Safety Investigation,Department of Transportation,DDOT,1,2020/02/24 11:03:54+00,2020/03/06 15:20:07+00,2020/08/27 12:03:54+00,2020/02/24 11:03:54+00,0,2020/03/06 15:20:06+00,,Closed,,20-00068167,Standard,709 DECATUR STREET NE,400300.78,142236.99,38.94802983,-76.99653021,WASHINGTON,DC,20017,76757,5,
-77.08376381,38.96102751,69279,SPSTDAMA,Traffic Safety Investigation,Department of Transportation,DDOT,1,2020/02/24 11:07:11+00,2020/04/09 16:10:40+00,2020/08/27 12:07:11+00,2020/02/24 11:07:11+00,0,2020/04/09 16:10:39+00,,Closed,,20-00068174,Standard,MILITARY ROAD NW AND 43RD STREET NW,392740.42,143682.347,38.96101971,-77.0837615,WASHINGTON,DC,20015,902523,3,
-77.05185115,38.89762346,69467,SPSTDAMA,Traffic Safety Investigation,Department of Transportation,DDOT,1,2020/02/24 13:57:33+00,1970/01/01 00:00:00+00,2020/08/27 14:57:32+00,2020/02/24 13:57:33+00,,1970/01/01 00:00:00+00,,In-Progress,,20-00068573,Standard,2440 VIRGINIA AVENUE NW,395502.28,136641.9,38.89761601,-77.05184885,WASHINGTON,DC,20037,298525,2,
-77.02013529,38.94756826,69775,SPSTDAMA,Traffic Safety Investigation,Department of Transportation,DDOT,1,2020/02/24 14:48:47+00,1970/01/01 00:00:00+00,2020/08/27 15:48:46+00,2020/02/24 14:48:47+00,,1970/01/01 00:00:00+00,,In-Progress,,20-00068712,Standard,513 CRITTENDEN STREET NW,398254.75,142185.11,38.9475608,-77.020133,WASHINGTON,DC,20011,247271,4,
-76.99357357,38.89372985,69970,SPSTDAMA,Traffic Safety Investigation,Department of Transportation,DDOT,1,2020/02/24 19:39:04+00,1970/01/01 00:00:00+00,2020/08/26 20:39:04+00,2020/02/24 19:39:04+00,,1970/01/01 00:00:00+00,,In-Progress,,20-00069126,Standard,900 C STREET NE,400557.7,136208.42,38.8937224,-76.99357129,WASHINGTON,DC,20002,81649,6,
-76.9913425,38.89264095,69973,SPSTDAMA,Traffic Safety Investigation,Department of Transportation,DDOT,1,2020/02/24 19:44:30+00,2020/03/24 15:25:10+00,2020/08/26 20:44:29+00,2020/02/24 19:44:30+00,0,2020/03/24 15:25:09+00,,Closed,,20-00069130,Standard,1101 PARK STREET NE,400751.26,136087.56,38.8926335,-76.99134022,WASHINGTON,DC,20002,149759,6,
-76.99134563,38.89059299,70121,SPSTDAMA,Traffic Safety Investigation,Department of Transportation,DDOT,1,2020/02/24 19:51:36+00,2020/03/20 22:20:07+00,2020/08/26 20:51:36+00,2020/02/24 19:51:36+00,0,2020/03/20 22:20:06+00,,Closed,,20-00069135,Standard,1100 EAST CAPITOL STREET NE,400751.01,135860.22,38.89058554,-76.99134335,WASHINGTON,DC,20002,74596,6,
-77.03603701,38.94634067,70152,SPSTDAMA,Traffic Safety Investigation,Department of Transportation,DDOT,1,2020/02/24 23:17:01+00,2020/04/03 08:10:05+00,2020/08/27 00:17:01+00,2020/02/24 23:17:01+00,0,2020/04/03 08:10:04+00,,Closed,,20-00069215,Standard,4601 16TH STREET NW,396876.24,142049.26,38.94633321,-77.03603471,WASHINGTON,DC,20011,255616,4,
-77.05942705,38.94694314,70529,SPSTDAMA,Traffic Safety Investigation,Department of Transportation,DDOT,1,2020/02/25 11:18:49+00,2020/04/10 01:10:05+00,2020/08/28 12:18:48+00,2020/02/25 11:18:49+00,0,2020/04/10 01:10:04+00,,Closed,,20-00069757,Standard,2901 AUDUBON TERRACE NW,394848.66,142117.2,38.94693534,-77.05942474,WASHINGTON,DC,20008,220609,3,
-76.99686322,38.94839016,70626,SPSTDAMA,Traffic Safety Investigation,Department of Transportation,DDOT,1,2020/02/25 12:24:09+00,1970/01/01 00:00:00+00,2020/08/28 13:24:09+00,2020/02/25 12:24:09+00,,1970/01/01 00:00:00+00,,In-Progress,,20-00069897,Standard,700 DECATUR STREET NE,400272.11,142276.16,38.9483827,-76.99686093,WASHINGTON,DC,20017,273,5,
-77.002039,38.83199102,70870,SPSTDAMA,Traffic Safety Investigation,Department of Transportation,DDOT,1,2020/02/25 14:27:22+00,2020/07/02 11:10:08+00,2020/08/28 15:27:22+00,2020/02/25 14:27:22+00,0,2020/07/02 11:10:07+00,,Closed,,20-00070202,Standard,200 - 399 BLOCK OF VALLEY AVENUE SE,399823.1589,129354.9432,38.83198325,-77.00203672,WASHINGTON,DC,20032,809856,8,
-76.97966056,38.89390338,72231,SPSTDAMA,Traffic Safety Investigation,Department of Transportation,DDOT,1,2020/02/26 12:44:54+00,2020/04/09 15:10:06+00,2020/08/31 13:44:54+00,2020/02/26 12:44:54+00,0,2020/04/09 15:10:05+00,,Closed,,20-00071532,Standard,319 17TH PLACE NE,401764.67,136227.86,38.89389592,-76.97965828,WASHINGTON,DC,20002,39061,6,
-77.03923534,38.92465747,72354,SPSTDAMA,Traffic Safety Investigation,Department of Transportation,DDOT,1,2020/02/26 08:29:55+00,2020/03/16 15:30:46+00,2020/08/31 09:29:55+00,2020/02/26 08:29:55+00,0,2020/03/16 15:30:45+00,,Closed,,20-00070943,Standard,1700 COLUMBIA ROAD NW,396597.95,139642.35,38.92464967,-77.03923305,WASHINGTON,DC,20009,284066,1,
-76.93614556,38.89211134,72457,SPSTDAMA,Traffic Safety Investigation,Department of Transportation,DDOT,1,2020/02/26 10:40:16+00,1970/01/01 00:00:00+00,2020/08/31 11:40:16+00,2020/02/26 10:40:16+00,,1970/01/01 00:00:00+00,,In-Progress,,20-00071230,Standard,4610 BLAINE STREET NE,405539.79,136030.67,38.89210388,-76.9361433,WASHINGTON,DC,20019,19279,7,
-77.03887157,38.92880706,72521,SPSTDAMA,Traffic Safety Investigation,Department of Transportation,DDOT,1,2020/02/26 11:48:27+00,1970/01/01 00:00:00+00,2020/08/31 12:48:27+00,2020/02/26 11:48:27+00,,1970/01/01 00:00:00+00,,In-Progress,,20-00071400,Standard,IRVING STREET NW AND 17TH STREET NW,396629.69,140102.977,38.92879927,-77.03886928,WASHINGTON,DC,20010,905651,1,
-76.97037599,38.8552595,74047,SPSTDAMA,Traffic Safety Investigation,Department of Transportation,DDOT,1,2020/02/26 22:03:48+00,2020/05/01 14:10:13+00,2020/08/31 23:03:48+00,2020/02/26 22:03:48+00,0,2020/05/01 14:10:12+00,,Closed,,20-00072349,Standard,2490 ALABAMA AVENUE SE,402571.51,131938.32,38.85525172,-76.97037372,WASHINGTON,DC,20020,278169,8,
-77.00357161,38.90159472,74244,SPSTDAMA,Traffic Safety Investigation,Department of Transportation,DDOT,1,2020/02/27 07:26:00+00,2020/03/05 09:18:12+00,2020/09/01 08:26:00+00,2020/02/27 07:26:00+00,0,2020/03/05 09:18:11+00,,Closed,,20-00072457,Standard,900 - 913 BLOCK OF 2ND STREET NE,399690.39,137081.47,38.90158693,-77.00356932,WASHINGTON,DC,20002,807144,6,
-76.98221502,38.89333318,74298,SPSTDAMA,Traffic Safety Investigation,Department of Transportation,DDOT,1,2020/02/27 08:58:57+00,1970/01/01 00:00:00+00,2020/09/01 09:58:57+00,2020/02/27 08:58:57+00,,1970/01/01 00:00:00+00,,In-Progress,,20-00072633,Standard,C STREET NE AND 16TH STREET NE,401543.08,136164.517,38.89332539,-76.98221274,WASHINGTON,DC,20002,904863,6,
-77.02760494,38.96614076,74413,SPSTDAMA,Traffic Safety Investigation,Department of Transportation,DDOT,1,2020/02/27 10:52:05+00,2020/03/05 09:17:09+00,2020/09/01 11:52:05+00,2020/02/27 10:52:05+00,0,2020/03/05 09:17:08+00,,Closed,,20-00072922,Standard,GEORGIA AVENUE NW AND SHERIDAN STREET NW,397607.86,144246.997,38.96613296,-77.02760264,WASHINGTON,DC,20011,901213,4,
-76.97715447,38.86931578,74794,SPSTDAMA,Traffic Safety Investigation,Department of Transportation,DDOT,1,2020/02/27 14:19:13+00,1970/01/01 00:00:00+00,2020/09/01 15:19:13+00,2020/02/27 14:19:13+00,,1970/01/01 00:00:00+00,,In-Progress,,20-00073375,Standard,1901 R STREET SE,401982.76,133498.5,38.86930833,-76.97715219,WASHINGTON,DC,20020,54548,8,
-76.91856819,38.88571785,74882,SPSTDAMA,Traffic Safety Investigation,Department of Transportation,DDOT,1,2020/02/27 15:00:46+00,1970/01/01 00:00:00+00,2020/09/01 16:00:46+00,2020/02/27 15:00:46+00,,1970/01/01 00:00:00+00,,In-Progress,,20-00073450,Standard,SOUTHERN AVENUE SE AND CENTRAL AVENUE SE,407065.32,135322.157,38.88571006,-76.91856593,WASHINGTON,DC,20019,903973,7,
-77.00244987,38.93044838,75202,SPSTDAMA,Traffic Safety Investigation,Department of Transportation,DDOT,1,2020/02/27 16:44:31+00,2020/03/17 15:20:09+00,2020/09/01 17:44:31+00,2020/02/27 16:44:31+00,0,2020/03/17 15:20:08+00,,Closed,,20-00073607,Standard,IRVING STREET NE AND MICHIGAN AVENUE NE,399787.7779,140284.4626,38.93044058,-77.00244758,WASHINGTON,DC,20017,906938,5,
-77.0591085,38.90257508,75960,SPSTDAMA,Traffic Safety Investigation,Department of Transportation,DDOT,1,2020/02/28 08:42:42+00,1970/01/01 00:00:00+00,2020/09/02 09:42:42+00,2020/02/28 08:42:42+00,,1970/01/01 00:00:00+00,,In-Progress,,20-00074030,Standard,30TH STREET NW AND K STREET NW,394873.0847,137191.9515,38.90256729,-77.0591062,WASHINGTON,DC,20007,902492,2,
-76.98256144,38.85453209,77766,SPSTDAMA,Traffic Safety Investigation,Department of Transportation,DDOT,1,2020/02/28 19:37:23+00,2020/03/10 15:45:11+00,2020/09/02 20:37:23+00,2020/02/28 19:37:23+00,0,2020/03/10 15:45:09+00,,Closed,,20-00075127,Standard,2420 15TH PLACE SE,401513.85,131857.3,38.85452464,-76.98255916,WASHINGTON,DC,20020,47210,8,
-76.97622516,38.92558289,79583,SPSTDAMA,Traffic Safety Investigation,Department of Transportation,DDOT,1,2020/02/29 19:10:02+00,2020/05/01 13:35:21+00,2020/09/02 20:10:02+00,2020/02/29 19:10:02+00,0,2020/05/01 13:35:20+00,,Closed,,20-00075760,Standard,FRANKLIN STREET NE AND 20TH STREET NE,402061.78,139744.617,38.92557509,-76.97622288,WASHINGTON,DC,20018,901239,5,
-76.97221288,38.86979756,81322,SPSTDAMA,Traffic Safety Investigation,Department of Transportation,DDOT,1,2020/03/02 14:22:03+00,2020/03/03 12:40:10+00,2020/09/03 15:22:03+00,2020/03/02 14:22:03+00,0,2020/03/03 12:40:09+00,,Closed,,20-00077262,Standard,2332 NAYLOR ROAD SE,402411.58,133552.1,38.86979011,-76.97221061,WASHINGTON,DC,20020,48263,8,
-76.93944373,38.89947221,81381,SPSTDAMA,Traffic Safety Investigation,Department of Transportation,DDOT,1,2020/03/02 16:08:45+00,2020/04/22 08:10:04+00,2020/09/03 17:08:45+00,2020/03/02 16:08:45+00,0,2020/04/22 08:10:03+00,,Closed,,20-00077493,Standard,724 44TH STREET NE,405253.12,136847.59,38.89946475,-76.93944147,WASHINGTON,DC,20019,77907,7,
-76.99375579,38.89536181,81780,SPSTDAMA,Traffic Safety Investigation,Department of Transportation,DDOT,1,2020/03/02 20:52:02+00,2020/04/09 15:20:07+00,2020/09/03 21:52:02+00,2020/03/02 20:52:02+00,0,2020/04/09 15:20:06+00,,Closed,,20-00077785,Standard,400 - 469 BLOCK OF 9TH STREET NE,400541.88,136389.58,38.89535403,-76.99375351,WASHINGTON,DC,20002,800779,6,
-77.00410463,38.86063797,81966,SPSTDAMA,Traffic Safety Investigation,Department of Transportation,DDOT,1,2020/03/03 09:07:38+00,2020/03/16 15:10:20+00,2020/09/04 10:07:38+00,2020/03/03 09:07:38+00,0,2020/03/16 15:10:19+00,,Closed,,20-00078072,Standard,2702 MITSCHER ROAD SW,399643.95,132534.96,38.86063052,-77.00410235,WASHINGTON,DC,20373,312086,8,
-77.00774582,38.83569519,82007,SPSTDAMA,Traffic Safety Investigation,Department of Transportation,DDOT,1,2020/03/03 09:36:12+00,2020/04/02 12:35:13+00,2020/09/04 10:36:12+00,2020/03/03 09:36:12+00,0,2020/04/02 12:35:12+00,,Closed,,20-00078150,Standard,SOUTH CAPITOL STREET AND HALLEY PLACE SE,399327.69,129766.157,38.83568741,-77.00774354,WASHINGTON,DC,20032,900608,8,
-77.00934965,38.95509928,82771,SPSTDAMA,Traffic Safety Investigation,Department of Transportation,DDOT,1,2020/03/03 16:09:39+00,2020/04/10 02:25:04+00,2020/09/04 17:09:39+00,2020/03/03 16:09:39+00,0,2020/04/10 02:25:03+00,,Closed,,20-00079079,Standard,1 MISSOURI AVENUE NW,399189.8,143020.97,38.95509181,-77.00934736,WASHINGTON,DC,20011,245917,4,
-76.98318146,38.92569777,82941,SPSTDAMA,Traffic Safety Investigation,Department of Transportation,DDOT,1,2020/03/03 15:24:53+00,2020/03/03 15:35:06+00,2020/09/04 16:24:53+00,2020/03/03 15:24:53+00,0,2020/03/03 15:35:04+00,,Closed,,20-00079005,Standard,RHODE ISLAND AVENUE NE AND FRANKLIN STREET NE,401458.5775,139757.2362,38.92568998,-76.98317918,WASHINGTON,DC,20018,903481,5,
-76.9992839,38.89426791,82973,SPSTDAMA,Traffic Safety Investigation,Department of Transportation,DDOT,1,2020/03/03 16:01:29+00,2020/05/01 11:50:15+00,2020/09/04 17:01:28+00,2020/03/03 16:01:29+00,0,2020/05/01 11:50:14+00,,Closed,,20-00079070,Standard,500 C STREET NE,400062.32,136268.13,38.89426046,-76.99928162,WASHINGTON,DC,20002,15644,6,
-76.99845442,38.89359387,82991,SPSTDAMA,Traffic Safety Investigation,Department of Transportation,DDOT,1,2020/03/03 16:35:04+00,2020/03/16 10:10:10+00,2020/09/04 17:35:04+00,2020/03/03 16:35:04+00,0,2020/03/16 10:10:09+00,,Closed,,20-00079120,Standard,6TH STREET NE AND C STREET NE,400134.28,136193.307,38.89358608,-76.99845213,WASHINGTON,DC,20002,902424,6,
-76.98256144,38.85453209,83237,SPSTDAMA,Traffic Safety Investigation,Department of Transportation,DDOT,1,2020/03/03 17:35:24+00,1970/01/01 00:00:00+00,2020/09/04 18:35:24+00,2020/03/03 17:35:24+00,,1970/01/01 00:00:00+00,,In-Progress,,20-00079221,Standard,2420 15TH PLACE SE,401513.85,131857.3,38.85452464,-76.98255916,WASHINGTON,DC,20020,47210,8,
-76.98256144,38.85453209,83295,SPSTDAMA,Traffic Safety Investigation,Department of Transportation,DDOT,1,2020/03/03 22:22:21+00,1970/01/01 00:00:00+00,2020/09/04 23:22:20+00,2020/03/03 22:22:21+00,,1970/01/01 00:00:00+00,,In-Progress,,20-00079401,Standard,2420 15TH PLACE SE,401513.85,131857.3,38.85452464,-76.98255916,WASHINGTON,DC,20020,47210,8,
-77.0895835,38.93982097,84167,SPSTDAMA,Traffic Safety Investigation,Department of Transportation,DDOT,1,2020/03/04 11:30:42+00,2020/04/13 10:10:17+00,2020/09/08 12:30:42+00,2020/03/04 11:30:42+00,0,2020/04/13 10:10:16+00,,Closed,,20-00080017,Standard,4500 MASSACHUSETTS AVENUE NW,392233.72,141328.71,38.93981351,-77.08958119,WASHINGTON,DC,20016,301589,3,
-77.01515715,38.89981942,84338,SPSTDAMA,Traffic Safety Investigation,Department of Transportation,DDOT,1,2020/03/04 14:09:16+00,1970/01/01 00:00:00+00,2020/09/08 15:09:16+00,2020/03/04 14:09:16+00,,1970/01/01 00:00:00+00,,In-Progress,,20-00080346,Standard,3RD STREET NW AND H STREET NW,398685.4055,136884.5007,38.89981164,-77.01515486,WASHINGTON,DC,20001,900045,NULL,
-77.00888055,38.87081354,84522,SPSTDAMA,Traffic Safety Investigation,Department of Transportation,DDOT,1,2020/03/04 17:24:26+00,2020/03/21 16:30:05+00,2020/09/08 18:24:26+00,2020/03/04 17:24:26+00,0,2020/03/21 16:30:04+00,,Closed,,20-00080677,Standard,POTOMAC AVENUE SW AND SOUTH CAPITOL STREET,399229.5497,133664.5525,38.87080576,-77.00887827,WASHINGTON,DC,20003,913613,6,
-77.0011776,38.92222099,84712,SPSTDAMA,Traffic Safety Investigation,Department of Transportation,DDOT,1,2020/03/05 11:07:36+00,2020/05/01 13:35:15+00,2020/09/09 12:07:36+00,2020/03/05 11:07:36+00,0,2020/05/01 13:35:14+00,,Closed,,20-00081329,Standard,321 CHANNING STREET NE,399898.08,139371.15,38.92221353,-77.00117532,WASHINGTON,DC,20002,38638,5,
-77.01735321,38.91689065,84836,SPSTDAMA,Traffic Safety Investigation,Department of Transportation,DDOT,1,2020/03/04 16:50:40+00,1970/01/01 00:00:00+00,2020/09/08 17:50:39+00,2020/03/04 16:50:40+00,,1970/01/01 00:00:00+00,,In-Progress,,20-00080641,Standard,335 U STREET NW,398495.27,138779.58,38.91688319,-77.01735092,WASHINGTON,DC,20001,229703,1,
-77.00874488,38.91186466,84889,SPSTDAMA,Traffic Safety Investigation,Department of Transportation,DDOT,1,2020/03/04 19:23:58+00,2020/05/01 13:35:18+00,2020/09/08 20:23:58+00,2020/03/04 19:23:58+00,0,2020/05/01 13:35:17+00,,Closed,,20-00080779,Standard,LINCOLN ROAD NE AND QUINCY PLACE NE,399241.76,138221.547,38.91185687,-77.00874259,WASHINGTON,DC,20002,900035,5,
-76.96949464,38.8977022,85203,SPSTDAMA,Traffic Safety Investigation,Department of Transportation,DDOT,1,2020/03/05 08:46:44+00,2020/05/12 08:40:09+00,2020/09/09 09:46:44+00,2020/03/05 08:46:44+00,0,2020/05/12 08:40:08+00,,Closed,,20-00081055,Standard,BENNING ROAD NE AND OKLAHOMA AVENUE NE,402646.4354,136649.8046,38.89769441,-76.96949237,WASHINGTON,DC,20019,902446,NULL,
-77.01515715,38.89981942,85476,SPSTDAMA,Traffic Safety Investigation,Department of Transportation,DDOT,1,2020/03/05 13:21:45+00,2020/04/24 17:50:09+00,2020/09/09 14:21:45+00,2020/03/05 13:21:45+00,0,2020/04/24 17:50:08+00,,Closed,,20-00081585,Standard,3RD STREET NW AND H STREET NW,398685.4055,136884.5007,38.89981164,-77.01515486,WASHINGTON,DC,20001,900045,NULL,
-77.01407323,38.95010721,85536,SPSTDAMA,Traffic Safety Investigation,Department of Transportation,DDOT,1,2020/03/05 15:15:18+00,1970/01/01 00:00:00+00,2020/09/09 16:15:18+00,2020/03/05 15:15:18+00,,1970/01/01 00:00:00+00,,In-Progress,,20-00081806,Standard,EMERSON STREET NW AND NEW HAMPSHIRE AVENUE NW,398780.29,142466.857,38.95009941,-77.01407093,WASHINGTON,DC,20011,905189,4,
